[
  {
    "comune": "Abano terme",
    "lng": 11.7819537,
    "lat": 45.3607303
  },
  {
    "comune": "Abbadia cerreto",
    "lng": 9.5929381,
    "lat": 45.3124808
  },
  {
    "comune": "Abbadia lariana",
    "lng": 9.3363419,
    "lat": 45.8948976
  },
  {
    "comune": "Abbadia san salvatore",
    "lng": 11.6726755,
    "lat": 42.8766675
  },
  {
    "comune": "Abbasanta",
    "lng": 8.816704999999999,
    "lat": 40.1269393
  },
  {
    "comune": "Abbateggio",
    "lng": 14.0107077,
    "lat": 42.2256293
  },
  {
    "comune": "Abbiategrasso",
    "lng": 8.916555299999999,
    "lat": 45.39905230000001
  },
  {
    "comune": "Abetone cutigliano",
    "lng": 10.7557074,
    "lat": 44.1000993
  },
  {
    "comune": "Abriola",
    "lng": 15.7938069,
    "lat": 40.5191374
  },
  {
    "comune": "Acate",
    "lng": 14.4924662,
    "lat": 37.0252855
  },
  {
    "comune": "Accadia",
    "lng": 15.3315639,
    "lat": 41.1564888
  },
  {
    "comune": "Acceglio",
    "lng": 6.988893,
    "lat": 44.47501500000001
  },
  {
    "comune": "Accettura",
    "lng": 16.1579048,
    "lat": 40.4924204
  },
  {
    "comune": "Acciano",
    "lng": 13.7168182,
    "lat": 42.1754083
  },
  {
    "comune": "Accumoli",
    "lng": 13.2454606,
    "lat": 42.6945922
  },
  {
    "comune": "Acerenza",
    "lng": 15.942972,
    "lat": 40.7961502
  },
  {
    "comune": "Acerno",
    "lng": 15.060466,
    "lat": 40.7371658
  },
  {
    "comune": "Acerra",
    "lng": 14.371438,
    "lat": 40.9441091
  },
  {
    "comune": "Aci bonaccorsi",
    "lng": 15.1095426,
    "lat": 37.5955168
  },
  {
    "comune": "Aci castello",
    "lng": 15.1444802,
    "lat": 37.5557219
  },
  {
    "comune": "Aci catena",
    "lng": 15.1419245,
    "lat": 37.6064346
  },
  {
    "comune": "Aci sant'antonio",
    "lng": 15.1259696,
    "lat": 37.6062545
  },
  {
    "comune": "Acireale",
    "lng": 15.166736,
    "lat": 37.607802
  },
  {
    "comune": "Acquafondata",
    "lng": 13.9504751,
    "lat": 41.5427709
  },
  {
    "comune": "Acquaformosa",
    "lng": 16.0917063,
    "lat": 39.7239373
  },
  {
    "comune": "Acquafredda",
    "lng": 10.4106894,
    "lat": 45.3050953
  },
  {
    "comune": "Acqualagna",
    "lng": 12.6733324,
    "lat": 43.6194948
  },
  {
    "comune": "Acquanegra cremonese",
    "lng": 9.8908399,
    "lat": 45.1685642
  },
  {
    "comune": "Acquanegra sul chiese",
    "lng": 10.4323239,
    "lat": 45.1704993
  },
  {
    "comune": "Acquapendente",
    "lng": 11.8630202,
    "lat": 42.7477229
  },
  {
    "comune": "Acquappesa",
    "lng": 15.9533146,
    "lat": 39.4971145
  },
  {
    "comune": "Acquaro",
    "lng": 16.1903913,
    "lat": 38.5578785
  },
  {
    "comune": "Acquasanta terme",
    "lng": 13.4094367,
    "lat": 42.7691088
  },
  {
    "comune": "Acquasparta",
    "lng": 12.5418725,
    "lat": 42.690841
  },
  {
    "comune": "Acquaviva collecroce",
    "lng": 14.7469479,
    "lat": 41.86715969999999
  },
  {
    "comune": "Acquaviva d'isernia",
    "lng": 14.1484744,
    "lat": 41.6725472
  },
  {
    "comune": "Acquaviva delle fonti",
    "lng": 16.8454361,
    "lat": 40.8971942
  },
  {
    "comune": "Acquaviva picena",
    "lng": 13.8042382,
    "lat": 42.93827
  },
  {
    "comune": "Acquaviva platani",
    "lng": 13.6999581,
    "lat": 37.5619622
  },
  {
    "comune": "Acquedolci",
    "lng": 14.5831297,
    "lat": 38.0555435
  },
  {
    "comune": "Acqui terme",
    "lng": 8.4670285,
    "lat": 44.67638460000001
  },
  {
    "comune": "Acri",
    "lng": 16.3828566,
    "lat": 39.488691
  },
  {
    "comune": "Acuto",
    "lng": 13.1731508,
    "lat": 41.7925804
  },
  {
    "comune": "Adelfia",
    "lng": 16.8721877,
    "lat": 41.0037948
  },
  {
    "comune": "Adrano",
    "lng": 14.8326154,
    "lat": 37.6627555
  },
  {
    "comune": "Adrara san martino",
    "lng": 9.9531417,
    "lat": 45.7032381
  },
  {
    "comune": "Adrara san rocco",
    "lng": 9.9744785,
    "lat": 45.7300462
  },
  {
    "comune": "Adria",
    "lng": 12.0560381,
    "lat": 45.0555487
  },
  {
    "comune": "Adro",
    "lng": 9.9575541,
    "lat": 45.6201335
  },
  {
    "comune": "Affi",
    "lng": 10.7720528,
    "lat": 45.552506
  },
  {
    "comune": "Affile",
    "lng": 13.1009676,
    "lat": 41.8859663
  },
  {
    "comune": "Afragola",
    "lng": 14.309304,
    "lat": 40.9230386
  },
  {
    "comune": "Africo",
    "lng": 15.981739,
    "lat": 38.0635634
  },
  {
    "comune": "Agazzano",
    "lng": 9.4965333,
    "lat": 44.9698278
  },
  {
    "comune": "Agerola",
    "lng": 14.5452164,
    "lat": 40.6380474
  },
  {
    "comune": "Aggius",
    "lng": 9.064926999999999,
    "lat": 40.9300376
  },
  {
    "comune": "Agira",
    "lng": 14.5189017,
    "lat": 37.6566797
  },
  {
    "comune": "Agliana",
    "lng": 10.997658,
    "lat": 43.892127
  },
  {
    "comune": "Agliano terme",
    "lng": 8.2473071,
    "lat": 44.7869254
  },
  {
    "comune": "Aglie'",
    "lng": 7.7686343,
    "lat": 45.3639467
  },
  {
    "comune": "Aglientu",
    "lng": 9.0792263,
    "lat": 41.103113
  },
  {
    "comune": "Agna",
    "lng": 11.966362,
    "lat": 45.1749574
  },
  {
    "comune": "Agnadello",
    "lng": 9.562286799999999,
    "lat": 45.4464181
  },
  {
    "comune": "Agnana calabra",
    "lng": 16.2245656,
    "lat": 38.302341
  },
  {
    "comune": "Agnone",
    "lng": 14.3739286,
    "lat": 41.8086744
  },
  {
    "comune": "Agnosine",
    "lng": 10.3543357,
    "lat": 45.6486747
  },
  {
    "comune": "Agordo",
    "lng": 12.0345018,
    "lat": 46.2838939
  },
  {
    "comune": "Agosta",
    "lng": 13.0360279,
    "lat": 41.9804845
  },
  {
    "comune": "Agra",
    "lng": 78.00807449999999,
    "lat": 27.1766701
  },
  {
    "comune": "Agrate brianza",
    "lng": 9.3535417,
    "lat": 45.5729757
  },
  {
    "comune": "Agrate conturbia",
    "lng": 8.5529581,
    "lat": 45.6771019
  },
  {
    "comune": "Agrigento",
    "lng": 13.5857528,
    "lat": 37.3088512
  },
  {
    "comune": "Agropoli",
    "lng": 14.9912195,
    "lat": 40.3486827
  },
  {
    "comune": "Agugliano",
    "lng": 13.3891868,
    "lat": 43.5425922
  },
  {
    "comune": "Agugliaro",
    "lng": 11.5868166,
    "lat": 45.3244267
  },
  {
    "comune": "Aicurzio",
    "lng": 9.4144484,
    "lat": 45.6417875
  },
  {
    "comune": "Aidomaggiore",
    "lng": 8.8562958,
    "lat": 40.1709213
  },
  {
    "comune": "Aidone",
    "lng": 14.4454965,
    "lat": 37.41591530000001
  },
  {
    "comune": "Aielli",
    "lng": 13.5841871,
    "lat": 42.0784862
  },
  {
    "comune": "Aiello calabro",
    "lng": 16.166775,
    "lat": 39.1172152
  },
  {
    "comune": "Aiello del friuli",
    "lng": 13.3485873,
    "lat": 45.8760638
  },
  {
    "comune": "Aiello del sabato",
    "lng": 14.8177335,
    "lat": 40.8874462
  },
  {
    "comune": "Aieta",
    "lng": 15.823187,
    "lat": 39.9284741
  },
  {
    "comune": "Ailano",
    "lng": 14.207422,
    "lat": 41.3913721
  },
  {
    "comune": "Ailoche",
    "lng": 8.223174199999999,
    "lat": 45.6975091
  },
  {
    "comune": "Airasca",
    "lng": 7.4893491,
    "lat": 44.9171106
  },
  {
    "comune": "Airola",
    "lng": 14.5577239,
    "lat": 41.0655176
  },
  {
    "comune": "Airole",
    "lng": 7.5555666,
    "lat": 43.8712411
  },
  {
    "comune": "Airuno",
    "lng": 9.4252068,
    "lat": 45.7537371
  },
  {
    "comune": "Aisone",
    "lng": 7.222758700000001,
    "lat": 44.3134958
  },
  {
    "comune": "Ala",
    "lng": 11.0051732,
    "lat": 45.7625639
  },
  {
    "comune": "Ala di stura",
    "lng": 7.293252600000001,
    "lat": 45.3113703
  },
  {
    "comune": "Alagna",
    "lng": 7.937623599999998,
    "lat": 45.85442459999999
  },
  {
    "comune": "Alagna valsesia",
    "lng": 7.937623599999998,
    "lat": 45.85442459999999
  },
  {
    "comune": "Alanno",
    "lng": 13.9956269,
    "lat": 42.2851098
  },
  {
    "comune": "Alano di piave",
    "lng": 11.9051391,
    "lat": 45.9032723
  },
  {
    "comune": "Alassio",
    "lng": 8.1811741,
    "lat": 44.014336
  },
  {
    "comune": "Alatri",
    "lng": 13.3412036,
    "lat": 41.7252936
  },
  {
    "comune": "Alba",
    "lng": 8.0356911,
    "lat": 44.7009153
  },
  {
    "comune": "Alba adriatica",
    "lng": 13.9293014,
    "lat": 42.8270607
  },
  {
    "comune": "Albagiara",
    "lng": 8.861913399999999,
    "lat": 39.7868571
  },
  {
    "comune": "Albairate",
    "lng": 8.9448741,
    "lat": 45.4253354
  },
  {
    "comune": "Albanella",
    "lng": 15.1143324,
    "lat": 40.4781626
  },
  {
    "comune": "Albano di lucania",
    "lng": 16.0371294,
    "lat": 40.5870579
  },
  {
    "comune": "Albano laziale",
    "lng": 12.6589426,
    "lat": 41.7284572
  },
  {
    "comune": "Albano sant'alessandro",
    "lng": 9.7662792,
    "lat": 45.6893806
  },
  {
    "comune": "Albano vercellese",
    "lng": 8.381038199999999,
    "lat": 45.42692539999999
  },
  {
    "comune": "Albaredo arnaboldi",
    "lng": 9.2440591,
    "lat": 45.1077227
  },
  {
    "comune": "Albaredo d'adige",
    "lng": 11.2761608,
    "lat": 45.31699709999999
  },
  {
    "comune": "Albaredo per san marco",
    "lng": 9.590033799999999,
    "lat": 46.10297749999999
  },
  {
    "comune": "Albareto",
    "lng": 9.699565699999999,
    "lat": 44.4455274
  },
  {
    "comune": "Albaretto della torre",
    "lng": 8.0651928,
    "lat": 44.59551219999999
  },
  {
    "comune": "Albavilla",
    "lng": 9.1880262,
    "lat": 45.8029324
  },
  {
    "comune": "Albenga",
    "lng": 8.215611299999999,
    "lat": 44.0494254
  },
  {
    "comune": "Albera ligure",
    "lng": 9.0656876,
    "lat": 44.7025505
  },
  {
    "comune": "Alberobello",
    "lng": 17.240936,
    "lat": 40.7864131
  },
  {
    "comune": "Alberona",
    "lng": 15.1242439,
    "lat": 41.432188
  },
  {
    "comune": "Albese con cassano",
    "lng": 9.1689894,
    "lat": 45.7935879
  },
  {
    "comune": "Albettone",
    "lng": 11.5853861,
    "lat": 45.3583272
  },
  {
    "comune": "Albi",
    "lng": 2.1486413,
    "lat": 43.9250853
  },
  {
    "comune": "Albiano",
    "lng": 11.1857343,
    "lat": 46.14592030000001
  },
  {
    "comune": "Albiano d'ivrea",
    "lng": 7.9476302,
    "lat": 45.4327781
  },
  {
    "comune": "Albiate",
    "lng": 9.2486562,
    "lat": 45.6554057
  },
  {
    "comune": "Albidona",
    "lng": 16.4723581,
    "lat": 39.9243174
  },
  {
    "comune": "Albignasego",
    "lng": 11.8522459,
    "lat": 45.3533775
  },
  {
    "comune": "Albinea",
    "lng": 10.6025929,
    "lat": 44.6198538
  },
  {
    "comune": "Albino",
    "lng": 9.801541499999999,
    "lat": 45.7636652
  },
  {
    "comune": "Albiolo",
    "lng": 8.9350928,
    "lat": 45.8064124
  },
  {
    "comune": "Albisola marina",
    "lng": 8.5012243,
    "lat": 44.3263602
  },
  {
    "comune": "Albisola superiore",
    "lng": 8.4677851,
    "lat": 44.3631775
  },
  {
    "comune": "Albizzate",
    "lng": 8.802844,
    "lat": 45.7209114
  },
  {
    "comune": "Albonese",
    "lng": 8.7060423,
    "lat": 45.2939375
  },
  {
    "comune": "Albosaggia",
    "lng": 9.853736699999999,
    "lat": 46.1473587
  },
  {
    "comune": "Albugnano",
    "lng": 7.968621799999999,
    "lat": 45.07652239999999
  },
  {
    "comune": "Albuzzano",
    "lng": 9.2736023,
    "lat": 45.1866941
  },
  {
    "comune": "Alcamo",
    "lng": 12.9686255,
    "lat": 37.9783947
  },
  {
    "comune": "Alcara li fusi",
    "lng": 14.700974,
    "lat": 38.0213369
  },
  {
    "comune": "Aldeno",
    "lng": 11.0913788,
    "lat": 45.9806715
  },
  {
    "comune": "Aldino",
    "lng": 11.3555754,
    "lat": 46.3655242
  },
  {
    "comune": "Ales",
    "lng": 12.4941376,
    "lat": 41.9020198
  },
  {
    "comune": "Alessandria",
    "lng": 8.6116796,
    "lat": 44.9072727
  },
  {
    "comune": "Alessandria del carretto",
    "lng": 16.3807504,
    "lat": 39.9594759
  },
  {
    "comune": "Alessandria della rocca",
    "lng": 13.4534753,
    "lat": 37.5696173
  },
  {
    "comune": "Alessano",
    "lng": 18.3314973,
    "lat": 39.889496
  },
  {
    "comune": "Alezio",
    "lng": 18.0534338,
    "lat": 40.0600339
  },
  {
    "comune": "Alfano",
    "lng": 15.4198738,
    "lat": 40.1755715
  },
  {
    "comune": "Alfedena",
    "lng": 14.0331557,
    "lat": 41.7345278
  },
  {
    "comune": "Alfianello",
    "lng": 10.1495511,
    "lat": 45.2671654
  },
  {
    "comune": "Alfiano natta",
    "lng": 8.208565,
    "lat": 45.0463998
  },
  {
    "comune": "Alfonsine",
    "lng": 12.0430671,
    "lat": 44.5059036
  },
  {
    "comune": "Alghero",
    "lng": 8.319294900000001,
    "lat": 40.5579517
  },
  {
    "comune": "Algua",
    "lng": 9.7223996,
    "lat": 45.8264814
  },
  {
    "comune": "Ali'",
    "lng": 12.4876114,
    "lat": 41.8972078
  },
  {
    "comune": "Ali' terme",
    "lng": 15.4236967,
    "lat": 38.0048564
  },
  {
    "comune": "Alia",
    "lng": 11.198722,
    "lat": 43.7693118
  },
  {
    "comune": "Aliano",
    "lng": 16.230216,
    "lat": 40.3138238
  },
  {
    "comune": "Alice bel colle",
    "lng": 8.449747799999999,
    "lat": 44.7261174
  },
  {
    "comune": "Alice castello",
    "lng": 8.076755,
    "lat": 45.3702017
  },
  {
    "comune": "Alife",
    "lng": 14.3336256,
    "lat": 41.3274024
  },
  {
    "comune": "Alimena",
    "lng": 14.112994,
    "lat": 37.6901468
  },
  {
    "comune": "Aliminusa",
    "lng": 13.7826639,
    "lat": 37.8649836
  },
  {
    "comune": "Allai",
    "lng": 8.8473024,
    "lat": 39.94030679999999
  },
  {
    "comune": "Alleghe",
    "lng": 12.0203957,
    "lat": 46.4069654
  },
  {
    "comune": "Allein",
    "lng": 7.2718968,
    "lat": 45.80826589999999
  },
  {
    "comune": "Allerona",
    "lng": 11.973853,
    "lat": 42.81255590000001
  },
  {
    "comune": "Alliste",
    "lng": 18.0862253,
    "lat": 39.947527
  },
  {
    "comune": "Allumiere",
    "lng": 11.9005017,
    "lat": 42.1557504
  },
  {
    "comune": "Alluvioni piovera",
    "lng": 8.7398515,
    "lat": 44.9507208
  },
  {
    "comune": "Alme'",
    "lng": 9.6124951,
    "lat": 45.7397649
  },
  {
    "comune": "Almenno san bartolomeo",
    "lng": 9.5807014,
    "lat": 45.7410006
  },
  {
    "comune": "Almenno san salvatore",
    "lng": 9.5991235,
    "lat": 45.7509683
  },
  {
    "comune": "Almese",
    "lng": 7.3950789,
    "lat": 45.1173797
  },
  {
    "comune": "Alonte",
    "lng": 11.4284913,
    "lat": 45.3646444
  },
  {
    "comune": "Alpago",
    "lng": 12.3566375,
    "lat": 46.1206639
  },
  {
    "comune": "Alpette",
    "lng": 7.580299800000001,
    "lat": 45.4106335
  },
  {
    "comune": "Alpignano",
    "lng": 7.516632899999999,
    "lat": 45.0991116
  },
  {
    "comune": "Alseno",
    "lng": 9.9671594,
    "lat": 44.8965638
  },
  {
    "comune": "Alserio",
    "lng": 9.199703,
    "lat": 45.78085189999999
  },
  {
    "comune": "Alta val tidone",
    "lng": 9.327784900000001,
    "lat": 44.9052093
  },
  {
    "comune": "Alta valle intelvi",
    "lng": 9.0757725,
    "lat": 45.9624143
  },
  {
    "comune": "Altamura",
    "lng": 16.5527874,
    "lat": 40.8253924
  },
  {
    "comune": "Altare",
    "lng": 12.4831269,
    "lat": 41.8945976
  },
  {
    "comune": "Altavalle",
    "lng": 11.2331497,
    "lat": 46.18068299999999
  },
  {
    "comune": "Altavilla irpina",
    "lng": 14.7791176,
    "lat": 41.0049692
  },
  {
    "comune": "Altavilla milicia",
    "lng": 13.5476246,
    "lat": 38.0393751
  },
  {
    "comune": "Altavilla monferrato",
    "lng": 8.3760246,
    "lat": 44.9950961
  },
  {
    "comune": "Altavilla silentina",
    "lng": 15.1291027,
    "lat": 40.5319728
  },
  {
    "comune": "Altavilla vicentina",
    "lng": 11.4757265,
    "lat": 45.5066743
  },
  {
    "comune": "Altidona",
    "lng": 13.8158299,
    "lat": 43.1085295
  },
  {
    "comune": "Altilia",
    "lng": 16.2551563,
    "lat": 39.1269585
  },
  {
    "comune": "Altino",
    "lng": 14.3325721,
    "lat": 42.1024175
  },
  {
    "comune": "Altissimo",
    "lng": 11.243475,
    "lat": 45.61122779999999
  },
  {
    "comune": "Altivole",
    "lng": 11.9555934,
    "lat": 45.7539477
  },
  {
    "comune": "Alto",
    "lng": 9.040788299999999,
    "lat": 45.6238087
  },
  {
    "comune": "Alto reno terme",
    "lng": 10.9761849,
    "lat": 44.1553432
  },
  {
    "comune": "Alto sermenza",
    "lng": 8.0400624,
    "lat": 45.8721773
  },
  {
    "comune": "Altofonte",
    "lng": 13.2981031,
    "lat": 38.044476
  },
  {
    "comune": "Altomonte",
    "lng": 16.1289488,
    "lat": 39.69848169999999
  },
  {
    "comune": "Altopascio",
    "lng": 10.6759772,
    "lat": 43.8142453
  },
  {
    "comune": "Altopiano della vigolana",
    "lng": 11.1991904,
    "lat": 46.0051154
  },
  {
    "comune": "Alviano",
    "lng": 12.2978194,
    "lat": 42.5910916
  },
  {
    "comune": "Alvignano",
    "lng": 14.367553,
    "lat": 41.2431721
  },
  {
    "comune": "Alvito",
    "lng": 13.7481929,
    "lat": 41.6901439
  },
  {
    "comune": "Alzano lombardo",
    "lng": 9.7088947,
    "lat": 45.7530752
  },
  {
    "comune": "Alzano scrivia",
    "lng": 8.8829352,
    "lat": 45.0171125
  },
  {
    "comune": "Alzate brianza",
    "lng": 9.1831582,
    "lat": 45.7609467
  },
  {
    "comune": "Al\u00e0 dei sardi",
    "lng": 9.3451118,
    "lat": 40.6807812
  },
  {
    "comune": "Amalfi",
    "lng": 14.6026805,
    "lat": 40.6340026
  },
  {
    "comune": "Amandola",
    "lng": 13.3555997,
    "lat": 42.9800068
  },
  {
    "comune": "Amantea",
    "lng": 16.0730192,
    "lat": 39.1357969
  },
  {
    "comune": "Amaro",
    "lng": 12.5757645,
    "lat": 41.9461662
  },
  {
    "comune": "Amaroni",
    "lng": 16.4462245,
    "lat": 38.792906
  },
  {
    "comune": "Amaseno",
    "lng": 13.3330459,
    "lat": 41.4695578
  },
  {
    "comune": "Amato",
    "lng": 12.4777339,
    "lat": 41.9284424
  },
  {
    "comune": "Amatrice",
    "lng": 13.2894368,
    "lat": 42.6116801
  },
  {
    "comune": "Ambivere",
    "lng": 9.5413968,
    "lat": 45.7218698
  },
  {
    "comune": "Amblar-don",
    "lng": 11.1369578,
    "lat": 46.3899628
  },
  {
    "comune": "Ameglia",
    "lng": 9.955593499999999,
    "lat": 44.0676995
  },
  {
    "comune": "Amelia",
    "lng": 12.4146361,
    "lat": 42.5567718
  },
  {
    "comune": "Amendolara",
    "lng": 16.5830645,
    "lat": 39.951364
  },
  {
    "comune": "Ameno",
    "lng": 8.435691499999999,
    "lat": 45.7875895
  },
  {
    "comune": "Amorosi",
    "lng": 14.4621265,
    "lat": 41.2022732
  },
  {
    "comune": "Ampezzo",
    "lng": 12.7900899,
    "lat": 46.4173353
  },
  {
    "comune": "Anacapri",
    "lng": 14.2105284,
    "lat": 40.5546558
  },
  {
    "comune": "Anagni",
    "lng": 13.1513636,
    "lat": 41.745324
  },
  {
    "comune": "Ancarano",
    "lng": 13.7462948,
    "lat": 42.84015249999999
  },
  {
    "comune": "Ancona",
    "lng": 13.518915,
    "lat": 43.6158299
  },
  {
    "comune": "Andali",
    "lng": 16.7695723,
    "lat": 39.012989
  },
  {
    "comune": "Andalo",
    "lng": 11.0075451,
    "lat": 46.16338030000001
  },
  {
    "comune": "Andalo valtellino",
    "lng": 9.4743523,
    "lat": 46.1333084
  },
  {
    "comune": "Andezeno",
    "lng": 7.867391800000001,
    "lat": 45.0367203
  },
  {
    "comune": "Andora",
    "lng": 8.130599199999999,
    "lat": 43.9848226
  },
  {
    "comune": "Andorno micca",
    "lng": 7.9631221,
    "lat": 45.6526477
  },
  {
    "comune": "Andrano",
    "lng": 18.3819674,
    "lat": 39.9868926
  },
  {
    "comune": "Andrate",
    "lng": 7.875187399999999,
    "lat": 45.52790090000001
  },
  {
    "comune": "Andreis",
    "lng": 12.6128989,
    "lat": 46.2013378
  },
  {
    "comune": "Andretta",
    "lng": 15.3270223,
    "lat": 40.9403631
  },
  {
    "comune": "Andria",
    "lng": 16.22868,
    "lat": 41.1382473
  },
  {
    "comune": "Andriano",
    "lng": 11.2336867,
    "lat": 46.518955
  },
  {
    "comune": "Anela",
    "lng": 9.057133499999999,
    "lat": 40.4436996
  },
  {
    "comune": "Anfo",
    "lng": 10.49473,
    "lat": 45.7653393
  },
  {
    "comune": "Angera",
    "lng": 8.5813265,
    "lat": 45.77359879999999
  },
  {
    "comune": "Anghiari",
    "lng": 12.0521433,
    "lat": 43.54010299999999
  },
  {
    "comune": "Angiari",
    "lng": 11.283351,
    "lat": 45.2179264
  },
  {
    "comune": "Angolo terme",
    "lng": 10.1453964,
    "lat": 45.89183449999999
  },
  {
    "comune": "Angri",
    "lng": 14.5712076,
    "lat": 40.7381073
  },
  {
    "comune": "Angrogna",
    "lng": 7.2245251,
    "lat": 44.84363690000001
  },
  {
    "comune": "Anguillara sabazia",
    "lng": 12.2715458,
    "lat": 42.09147859999999
  },
  {
    "comune": "Anguillara veneta",
    "lng": 11.8926823,
    "lat": 45.1447932
  },
  {
    "comune": "Annicco",
    "lng": 9.8779267,
    "lat": 45.2435125
  },
  {
    "comune": "Annone di brianza",
    "lng": 9.3316124,
    "lat": 45.8029704
  },
  {
    "comune": "Annone veneto",
    "lng": 12.6833548,
    "lat": 45.7957523
  },
  {
    "comune": "Anoia",
    "lng": 1.5596117,
    "lat": 41.6305499
  },
  {
    "comune": "Antegnate",
    "lng": 9.788859,
    "lat": 45.4853359
  },
  {
    "comune": "Anterivo",
    "lng": 11.3665392,
    "lat": 46.2777845
  },
  {
    "comune": "Antey-saint-andre'",
    "lng": 7.5954297,
    "lat": 45.79922209999999
  },
  {
    "comune": "Anticoli corrado",
    "lng": 12.9902315,
    "lat": 42.0102762
  },
  {
    "comune": "Antignano",
    "lng": 8.1418254,
    "lat": 44.8358477
  },
  {
    "comune": "Antillo",
    "lng": 15.2463797,
    "lat": 37.9759085
  },
  {
    "comune": "Antonimina",
    "lng": 16.149126,
    "lat": 38.2725364
  },
  {
    "comune": "Antrodoco",
    "lng": 13.0804534,
    "lat": 42.4210941
  },
  {
    "comune": "Antrona schieranco",
    "lng": 8.117386999999999,
    "lat": 46.068473
  },
  {
    "comune": "Anversa degli abruzzi",
    "lng": 13.8040788,
    "lat": 41.995886
  },
  {
    "comune": "Anzano del parco",
    "lng": 9.1976091,
    "lat": 45.7697037
  },
  {
    "comune": "Anzano di puglia",
    "lng": 15.2915009,
    "lat": 41.1188151
  },
  {
    "comune": "Anzi",
    "lng": 15.9213008,
    "lat": 40.5166516
  },
  {
    "comune": "Anzio",
    "lng": 12.6197253,
    "lat": 41.4495955
  },
  {
    "comune": "Anzola d'ossola",
    "lng": 8.3475665,
    "lat": 45.9893444
  },
  {
    "comune": "Anzola dell'emilia",
    "lng": 11.1927492,
    "lat": 44.5461898
  },
  {
    "comune": "Aosta",
    "lng": 7.313076199999999,
    "lat": 45.7349551
  },
  {
    "comune": "Apecchio",
    "lng": 12.420129,
    "lat": 43.559025
  },
  {
    "comune": "Apice",
    "lng": 14.9505671,
    "lat": 41.1282077
  },
  {
    "comune": "Apiro",
    "lng": 13.1319407,
    "lat": 43.3910499
  },
  {
    "comune": "Apollosa",
    "lng": 14.6985942,
    "lat": 41.0928862
  },
  {
    "comune": "Appiano gentile",
    "lng": 8.9734042,
    "lat": 45.7371047
  },
  {
    "comune": "Appiano sulla strada del vino",
    "lng": 11.247903,
    "lat": 46.4745536
  },
  {
    "comune": "Appignano",
    "lng": 13.3702811,
    "lat": 43.3760942
  },
  {
    "comune": "Appignano del tronto",
    "lng": 13.6579509,
    "lat": 42.8992675
  },
  {
    "comune": "Aprica",
    "lng": 10.1523763,
    "lat": 46.1539586
  },
  {
    "comune": "Apricale",
    "lng": 7.656252899999999,
    "lat": 43.8818776
  },
  {
    "comune": "Apricena",
    "lng": 15.4444337,
    "lat": 41.7836617
  },
  {
    "comune": "Aprigliano",
    "lng": 16.3382924,
    "lat": 39.245385
  },
  {
    "comune": "Aprilia",
    "lng": 12.6560314,
    "lat": 41.5944018
  },
  {
    "comune": "Aquara",
    "lng": 15.2511699,
    "lat": 40.4448385
  },
  {
    "comune": "Aquila di arroscia",
    "lng": 8.0058904,
    "lat": 44.0838245
  },
  {
    "comune": "Aquileia",
    "lng": 13.3687199,
    "lat": 45.76816909999999
  },
  {
    "comune": "Aquilonia",
    "lng": 15.488828,
    "lat": 40.9965681
  },
  {
    "comune": "Aquino",
    "lng": 13.7039714,
    "lat": 41.4993641
  },
  {
    "comune": "Aradeo",
    "lng": 18.1308772,
    "lat": 40.1300546
  },
  {
    "comune": "Aragona",
    "lng": 13.618945,
    "lat": 37.407403
  },
  {
    "comune": "Aramengo",
    "lng": 8.0011495,
    "lat": 45.0995905
  },
  {
    "comune": "Arba",
    "lng": 12.7868577,
    "lat": 46.1471809
  },
  {
    "comune": "Arborea",
    "lng": 8.5611142,
    "lat": 39.7780663
  },
  {
    "comune": "Arborio",
    "lng": 8.3720935,
    "lat": 45.4926573
  },
  {
    "comune": "Arbus",
    "lng": 8.6008037,
    "lat": 39.5281843
  },
  {
    "comune": "Arcade",
    "lng": 12.5736223,
    "lat": 41.9563412
  },
  {
    "comune": "Arce",
    "lng": 13.5730857,
    "lat": 41.5855679
  },
  {
    "comune": "Arcene",
    "lng": 9.6132818,
    "lat": 45.5734722
  },
  {
    "comune": "Arcevia",
    "lng": 12.9391003,
    "lat": 43.4981302
  },
  {
    "comune": "Archi",
    "lng": 14.3819886,
    "lat": 42.090201
  },
  {
    "comune": "Arcidosso",
    "lng": 11.5401091,
    "lat": 42.8711099
  },
  {
    "comune": "Arcinazzo romano",
    "lng": 13.1163715,
    "lat": 41.878652
  },
  {
    "comune": "Arcisate",
    "lng": 8.8594086,
    "lat": 45.860249
  },
  {
    "comune": "Arco",
    "lng": 10.9097607,
    "lat": 45.9268706
  },
  {
    "comune": "Arcola",
    "lng": 9.9046,
    "lat": 44.1133609
  },
  {
    "comune": "Arcole",
    "lng": 11.3038598,
    "lat": 45.36670609999999
  },
  {
    "comune": "Arconate",
    "lng": 8.8480238,
    "lat": 45.5408943
  },
  {
    "comune": "Arcore",
    "lng": 9.326543,
    "lat": 45.6269249
  },
  {
    "comune": "Arcugnano",
    "lng": 11.535509,
    "lat": 45.5006119
  },
  {
    "comune": "Ardara",
    "lng": -8.4092864,
    "lat": 54.7671456
  },
  {
    "comune": "Ardauli",
    "lng": 8.911667699999999,
    "lat": 40.0802276
  },
  {
    "comune": "Ardea",
    "lng": 12.5432586,
    "lat": 41.60796910000001
  },
  {
    "comune": "Ardenno",
    "lng": 9.6507395,
    "lat": 46.1700698
  },
  {
    "comune": "Ardesio",
    "lng": 9.9310051,
    "lat": 45.9382001
  },
  {
    "comune": "Ardore",
    "lng": 16.1657214,
    "lat": 38.1930907
  },
  {
    "comune": "Arena",
    "lng": 12.5613392,
    "lat": 41.8960758
  },
  {
    "comune": "Arena po",
    "lng": 9.3625706,
    "lat": 45.0957136
  },
  {
    "comune": "Arenzano",
    "lng": 8.6860167,
    "lat": 44.4058612
  },
  {
    "comune": "Arese",
    "lng": 9.0779155,
    "lat": 45.55081149999999
  },
  {
    "comune": "Arezzo",
    "lng": 11.8796336,
    "lat": 43.46328390000001
  },
  {
    "comune": "Argegno",
    "lng": 9.128424899999999,
    "lat": 45.9437564
  },
  {
    "comune": "Argelato",
    "lng": 11.3447429,
    "lat": 44.6447617
  },
  {
    "comune": "Argenta",
    "lng": 11.8369081,
    "lat": 44.6171421
  },
  {
    "comune": "Argentera",
    "lng": 6.9531225,
    "lat": 44.385817
  },
  {
    "comune": "Arguello",
    "lng": 8.1103154,
    "lat": 44.5827064
  },
  {
    "comune": "Argusto",
    "lng": 16.4380088,
    "lat": 38.6802343
  },
  {
    "comune": "Ari",
    "lng": 14.255458,
    "lat": 42.2862905
  },
  {
    "comune": "Ariano irpino",
    "lng": 15.0922763,
    "lat": 41.1548934
  },
  {
    "comune": "Ariano nel polesine",
    "lng": 12.1221024,
    "lat": 44.9476576
  },
  {
    "comune": "Ariccia",
    "lng": 12.6726413,
    "lat": 41.7211083
  },
  {
    "comune": "Arielli",
    "lng": 14.3061465,
    "lat": 42.26292429999999
  },
  {
    "comune": "Arienzo",
    "lng": 14.5130967,
    "lat": 41.0224341
  },
  {
    "comune": "Arignano",
    "lng": 7.9017012,
    "lat": 45.0377981
  },
  {
    "comune": "Aritzo",
    "lng": 9.1949769,
    "lat": 39.9525819
  },
  {
    "comune": "Arizzano",
    "lng": 8.5809441,
    "lat": 45.9555844
  },
  {
    "comune": "Arlena di castro",
    "lng": 11.8150573,
    "lat": 42.4613097
  },
  {
    "comune": "Arluno",
    "lng": 8.9410106,
    "lat": 45.5056869
  },
  {
    "comune": "Armeno",
    "lng": 8.439674199999999,
    "lat": 45.8225182
  },
  {
    "comune": "Armento",
    "lng": 16.0656701,
    "lat": 40.3060747
  },
  {
    "comune": "Armo",
    "lng": 15.7137836,
    "lat": 38.0700665
  },
  {
    "comune": "Armungia",
    "lng": 9.378321399999999,
    "lat": 39.5206492
  },
  {
    "comune": "Arnad",
    "lng": 7.723785399999999,
    "lat": 45.64202239999999
  },
  {
    "comune": "Arnara",
    "lng": 13.3899935,
    "lat": 41.5842509
  },
  {
    "comune": "Arnasco",
    "lng": 8.1065516,
    "lat": 44.0786188
  },
  {
    "comune": "Arnesano",
    "lng": 18.0906543,
    "lat": 40.3364798
  },
  {
    "comune": "Arola",
    "lng": 8.3454972,
    "lat": 45.8135521
  },
  {
    "comune": "Arona",
    "lng": 8.5581824,
    "lat": 45.7586155
  },
  {
    "comune": "Arosio",
    "lng": 9.205428699999999,
    "lat": 45.7209375
  },
  {
    "comune": "Arpaia",
    "lng": 14.5531893,
    "lat": 41.0384238
  },
  {
    "comune": "Arpaise",
    "lng": 14.7462603,
    "lat": 41.0219224
  },
  {
    "comune": "Arpino",
    "lng": 13.6246954,
    "lat": 41.6492543
  },
  {
    "comune": "Arqua' petrarca",
    "lng": 11.7189572,
    "lat": 45.270348
  },
  {
    "comune": "Arqua' polesine",
    "lng": 11.7404771,
    "lat": 45.01000699999999
  },
  {
    "comune": "Arquata del tronto",
    "lng": 13.2949129,
    "lat": 42.7722867
  },
  {
    "comune": "Arquata scrivia",
    "lng": 8.8999765,
    "lat": 44.6809757
  },
  {
    "comune": "Arre",
    "lng": 11.9303367,
    "lat": 45.2166064
  },
  {
    "comune": "Arrone",
    "lng": 12.768178,
    "lat": 42.5840254
  },
  {
    "comune": "Arsago seprio",
    "lng": 8.7359732,
    "lat": 45.6893366
  },
  {
    "comune": "Arsie'",
    "lng": 11.7434562,
    "lat": 45.9783128
  },
  {
    "comune": "Arsiero",
    "lng": 11.355629,
    "lat": 45.8032445
  },
  {
    "comune": "Arsita",
    "lng": 13.7868526,
    "lat": 42.4845844
  },
  {
    "comune": "Arsoli",
    "lng": 13.0152124,
    "lat": 42.0417472
  },
  {
    "comune": "Arta terme",
    "lng": 13.0256704,
    "lat": 46.4732502
  },
  {
    "comune": "Artegna",
    "lng": 13.1555583,
    "lat": 46.23911
  },
  {
    "comune": "Artena",
    "lng": 12.9118412,
    "lat": 41.741883
  },
  {
    "comune": "Artogne",
    "lng": 10.1660982,
    "lat": 45.851892
  },
  {
    "comune": "Arvier",
    "lng": 7.1674473,
    "lat": 45.7017558
  },
  {
    "comune": "Arzachena",
    "lng": 9.3901541,
    "lat": 41.0780118
  },
  {
    "comune": "Arzago d'adda",
    "lng": 9.564800600000002,
    "lat": 45.48262649999999
  },
  {
    "comune": "Arzana",
    "lng": 9.5282541,
    "lat": 39.9214135
  },
  {
    "comune": "Arzano",
    "lng": 14.2686658,
    "lat": 40.9149986
  },
  {
    "comune": "Arzergrande",
    "lng": 12.0484304,
    "lat": 45.2739091
  },
  {
    "comune": "Arzignano",
    "lng": 11.3337046,
    "lat": 45.5223525
  },
  {
    "comune": "Ascea",
    "lng": 15.1857642,
    "lat": 40.1400536
  },
  {
    "comune": "Asciano",
    "lng": 11.5606307,
    "lat": 43.2339704
  },
  {
    "comune": "Ascoli piceno",
    "lng": 13.5749442,
    "lat": 42.8536043
  },
  {
    "comune": "Ascoli satriano",
    "lng": 15.5627449,
    "lat": 41.2033413
  },
  {
    "comune": "Ascrea",
    "lng": 12.9952813,
    "lat": 42.1973172
  },
  {
    "comune": "Asiago",
    "lng": 11.50962,
    "lat": 45.8758852
  },
  {
    "comune": "Asigliano veneto",
    "lng": 11.4465878,
    "lat": 45.3044386
  },
  {
    "comune": "Asigliano vercellese",
    "lng": 8.4083268,
    "lat": 45.2604993
  },
  {
    "comune": "Asola",
    "lng": 10.4130142,
    "lat": 45.2201286
  },
  {
    "comune": "Asolo",
    "lng": 11.9141103,
    "lat": 45.79925859999999
  },
  {
    "comune": "Assago",
    "lng": 9.1239694,
    "lat": 45.4061985
  },
  {
    "comune": "Assemini",
    "lng": 9.0018424,
    "lat": 39.2106099
  },
  {
    "comune": "Assisi",
    "lng": 12.6195966,
    "lat": 43.0707017
  },
  {
    "comune": "Asso",
    "lng": 9.269662199999999,
    "lat": 45.86152939999999
  },
  {
    "comune": "Assolo",
    "lng": 8.917237,
    "lat": 39.8100093
  },
  {
    "comune": "Assoro",
    "lng": 14.4223114,
    "lat": 37.6273458
  },
  {
    "comune": "Asti",
    "lng": 8.2064257,
    "lat": 44.90075119999999
  },
  {
    "comune": "Asuni",
    "lng": 8.9480158,
    "lat": 39.8710501
  },
  {
    "comune": "Ateleta",
    "lng": 14.1940962,
    "lat": 41.8538142
  },
  {
    "comune": "Atella",
    "lng": 15.6569752,
    "lat": 40.8758311
  },
  {
    "comune": "Atena lucana",
    "lng": 15.5522181,
    "lat": 40.4544587
  },
  {
    "comune": "Atessa",
    "lng": 14.4511304,
    "lat": 42.071436
  },
  {
    "comune": "Atina",
    "lng": 13.8015603,
    "lat": 41.6193372
  },
  {
    "comune": "Atrani",
    "lng": 14.6086202,
    "lat": 40.6357929
  },
  {
    "comune": "Atri",
    "lng": 13.9724141,
    "lat": 42.5772704
  },
  {
    "comune": "Atripalda",
    "lng": 14.8307735,
    "lat": 40.9169098
  },
  {
    "comune": "Attigliano",
    "lng": 12.292242,
    "lat": 42.5168389
  },
  {
    "comune": "Attimis",
    "lng": 13.305888,
    "lat": 46.188266
  },
  {
    "comune": "Atzara",
    "lng": 9.0764918,
    "lat": 39.9928595
  },
  {
    "comune": "Augusta",
    "lng": 15.2216971,
    "lat": 37.2500684
  },
  {
    "comune": "Auletta",
    "lng": 15.42693,
    "lat": 40.5576404
  },
  {
    "comune": "Aulla",
    "lng": 9.9674972,
    "lat": 44.21667060000001
  },
  {
    "comune": "Aurano",
    "lng": 8.583157,
    "lat": 46.0256955
  },
  {
    "comune": "Aurigo",
    "lng": 7.924012299999999,
    "lat": 43.9824291
  },
  {
    "comune": "Auronzo di cadore",
    "lng": 12.4354814,
    "lat": 46.5520115
  },
  {
    "comune": "Ausonia",
    "lng": 13.7507436,
    "lat": 41.3570246
  },
  {
    "comune": "Austis",
    "lng": 9.0868883,
    "lat": 40.0708361
  },
  {
    "comune": "Avegno",
    "lng": 9.162913099999999,
    "lat": 44.3860983
  },
  {
    "comune": "Avelengo",
    "lng": 11.2244032,
    "lat": 46.6466855
  },
  {
    "comune": "Avella",
    "lng": 14.5994488,
    "lat": 40.957985
  },
  {
    "comune": "Avellino",
    "lng": 14.7906121,
    "lat": 40.914388
  },
  {
    "comune": "Averara",
    "lng": 9.6313357,
    "lat": 45.9902099
  },
  {
    "comune": "Aversa",
    "lng": 14.2076688,
    "lat": 40.9731743
  },
  {
    "comune": "Avetrana",
    "lng": 17.7266708,
    "lat": 40.3507245
  },
  {
    "comune": "Avezzano",
    "lng": 13.4255637,
    "lat": 42.0281396
  },
  {
    "comune": "Aviano",
    "lng": 12.5881394,
    "lat": 46.0695445
  },
  {
    "comune": "Aviatico",
    "lng": 9.782576899999999,
    "lat": 45.7945905
  },
  {
    "comune": "Avigliana",
    "lng": 7.4016896,
    "lat": 45.076291
  },
  {
    "comune": "Avigliano",
    "lng": 15.7145967,
    "lat": 40.7299
  },
  {
    "comune": "Avigliano umbro",
    "lng": 12.429611,
    "lat": 42.6516036
  },
  {
    "comune": "Avio",
    "lng": 12.492673,
    "lat": 41.90506999999999
  },
  {
    "comune": "Avise",
    "lng": 7.139643800000001,
    "lat": 45.7086376
  },
  {
    "comune": "Avola",
    "lng": 15.1348891,
    "lat": 36.9095319
  },
  {
    "comune": "Avolasca",
    "lng": 8.9652037,
    "lat": 44.8040337
  },
  {
    "comune": "Ayas",
    "lng": 7.7519993,
    "lat": 45.8507216
  },
  {
    "comune": "Aymavilles",
    "lng": 7.240775099999999,
    "lat": 45.7010951
  },
  {
    "comune": "Azeglio",
    "lng": 7.995413399999999,
    "lat": 45.4225837
  },
  {
    "comune": "Azzanello",
    "lng": 9.9237991,
    "lat": 45.315565
  },
  {
    "comune": "Azzano d'asti",
    "lng": 8.2659176,
    "lat": 44.8736882
  },
  {
    "comune": "Azzano decimo",
    "lng": 12.7144703,
    "lat": 45.8813211
  },
  {
    "comune": "Azzano mella",
    "lng": 10.1175645,
    "lat": 45.455364
  },
  {
    "comune": "Azzano san paolo",
    "lng": 9.674689599999999,
    "lat": 45.65967020000001
  },
  {
    "comune": "Azzate",
    "lng": 8.798926000000002,
    "lat": 45.7775012
  },
  {
    "comune": "Azzio",
    "lng": 8.7072542,
    "lat": 45.8867461
  },
  {
    "comune": "Azzone",
    "lng": 10.1125513,
    "lat": 45.9785684
  },
  {
    "comune": "Baceno",
    "lng": 8.3192629,
    "lat": 46.2621589
  },
  {
    "comune": "Bacoli",
    "lng": 14.0685261,
    "lat": 40.7948004
  },
  {
    "comune": "Badalucco",
    "lng": 7.8453976,
    "lat": 43.9194609
  },
  {
    "comune": "Badesi",
    "lng": 8.8786988,
    "lat": 40.967454
  },
  {
    "comune": "Badia",
    "lng": 11.8941784,
    "lat": 46.6091756
  },
  {
    "comune": "Badia calavena",
    "lng": 11.1560806,
    "lat": 45.5638355
  },
  {
    "comune": "Badia pavese",
    "lng": 9.4589817,
    "lat": 45.1259699
  },
  {
    "comune": "Badia polesine",
    "lng": 11.4930558,
    "lat": 45.0930208
  },
  {
    "comune": "Badia tedalda",
    "lng": 12.1845078,
    "lat": 43.7070297
  },
  {
    "comune": "Badolato",
    "lng": 16.5252934,
    "lat": 38.5694686
  },
  {
    "comune": "Bagaladi",
    "lng": 15.8210305,
    "lat": 38.0254433
  },
  {
    "comune": "Bagheria",
    "lng": 13.512365,
    "lat": 38.0789178
  },
  {
    "comune": "Bagnacavallo",
    "lng": 11.976675,
    "lat": 44.4197361
  },
  {
    "comune": "Bagnara calabra",
    "lng": 15.8114175,
    "lat": 38.2776694
  },
  {
    "comune": "Bagnara di romagna",
    "lng": 11.8248487,
    "lat": 44.3895112
  },
  {
    "comune": "Bagnaria",
    "lng": 9.129456099999999,
    "lat": 44.8310367
  },
  {
    "comune": "Bagnaria arsa",
    "lng": 13.2847476,
    "lat": 45.8835882
  },
  {
    "comune": "Bagnasco",
    "lng": 8.046294399999999,
    "lat": 44.3074069
  },
  {
    "comune": "Bagnatica",
    "lng": 9.769170899999999,
    "lat": 45.6523672
  },
  {
    "comune": "Bagni di lucca",
    "lng": 10.5916505,
    "lat": 44.0109245
  },
  {
    "comune": "Bagno a ripoli",
    "lng": 11.3317605,
    "lat": 43.7316252
  },
  {
    "comune": "Bagno di romagna",
    "lng": 11.9656122,
    "lat": 43.8391059
  },
  {
    "comune": "Bagnoli del trigno",
    "lng": 14.457392,
    "lat": 41.7024106
  },
  {
    "comune": "Bagnoli di sopra",
    "lng": 11.880744,
    "lat": 45.1848104
  },
  {
    "comune": "Bagnoli irpino",
    "lng": 15.0696704,
    "lat": 40.8320479
  },
  {
    "comune": "Bagnolo cremasco",
    "lng": 9.6140621,
    "lat": 45.3597256
  },
  {
    "comune": "Bagnolo del salento",
    "lng": 18.3519989,
    "lat": 40.14948140000001
  },
  {
    "comune": "Bagnolo di po",
    "lng": 11.5012746,
    "lat": 45.01616629999999
  },
  {
    "comune": "Bagnolo in piano",
    "lng": 10.6733645,
    "lat": 44.7638127
  },
  {
    "comune": "Bagnolo mella",
    "lng": 10.1860514,
    "lat": 45.4296229
  },
  {
    "comune": "Bagnolo piemonte",
    "lng": 7.314887,
    "lat": 44.7617224
  },
  {
    "comune": "Bagnolo san vito",
    "lng": 10.8703807,
    "lat": 45.0725911
  },
  {
    "comune": "Bagnone",
    "lng": 9.994510799999999,
    "lat": 44.31467989999999
  },
  {
    "comune": "Bagnoregio",
    "lng": 12.0911537,
    "lat": 42.6268809
  },
  {
    "comune": "Bagolino",
    "lng": 10.4635029,
    "lat": 45.8231864
  },
  {
    "comune": "Baia e latina",
    "lng": 14.2551467,
    "lat": 41.3001203
  },
  {
    "comune": "Baiano",
    "lng": 14.6190866,
    "lat": 40.9516927
  },
  {
    "comune": "Baiardo",
    "lng": 7.717909,
    "lat": 43.9025805
  },
  {
    "comune": "Bairo",
    "lng": 7.743402100000001,
    "lat": 45.3808562
  },
  {
    "comune": "Baiso",
    "lng": 10.5995953,
    "lat": 44.4957369
  },
  {
    "comune": "Balangero",
    "lng": 7.5203937,
    "lat": 45.2725474
  },
  {
    "comune": "Baldichieri d'asti",
    "lng": 8.0907313,
    "lat": 44.9054249
  },
  {
    "comune": "Baldissero canavese",
    "lng": 7.743959599999999,
    "lat": 45.4097288
  },
  {
    "comune": "Baldissero d'alba",
    "lng": 7.9115496,
    "lat": 44.7584183
  },
  {
    "comune": "Baldissero torinese",
    "lng": 7.805933899999999,
    "lat": 45.0749558
  },
  {
    "comune": "Balestrate",
    "lng": 13.0083325,
    "lat": 38.0496188
  },
  {
    "comune": "Balestrino",
    "lng": 8.1720989,
    "lat": 44.1211638
  },
  {
    "comune": "Ballabio",
    "lng": 9.4251632,
    "lat": 45.8961902
  },
  {
    "comune": "Ballao",
    "lng": 9.3619927,
    "lat": 39.54847609999999
  },
  {
    "comune": "Balme",
    "lng": 7.2193675,
    "lat": 45.30174
  },
  {
    "comune": "Balmuccia",
    "lng": 8.1390735,
    "lat": 45.81925349999999
  },
  {
    "comune": "Balocco",
    "lng": 7.732920099999999,
    "lat": 44.5627818
  },
  {
    "comune": "Balsorano",
    "lng": 13.5733388,
    "lat": 41.80152020000001
  },
  {
    "comune": "Balvano",
    "lng": 15.5118611,
    "lat": 40.6509283
  },
  {
    "comune": "Balzola",
    "lng": 8.4022913,
    "lat": 45.1835809
  },
  {
    "comune": "Banari",
    "lng": 8.696064999999999,
    "lat": 40.5716292
  },
  {
    "comune": "Banchette",
    "lng": 7.855950699999999,
    "lat": 45.4512317
  },
  {
    "comune": "Bannio anzino",
    "lng": 8.1358531,
    "lat": 45.9482832
  },
  {
    "comune": "Banzi",
    "lng": 16.0128548,
    "lat": 40.8622377
  },
  {
    "comune": "Baone",
    "lng": 11.6884306,
    "lat": 45.243735
  },
  {
    "comune": "Baradili",
    "lng": 8.8974484,
    "lat": 39.7225522
  },
  {
    "comune": "Baragiano",
    "lng": 15.5932682,
    "lat": 40.6799615
  },
  {
    "comune": "Baranello",
    "lng": 14.5581063,
    "lat": 41.52636800000001
  },
  {
    "comune": "Barano d'ischia",
    "lng": 13.9140481,
    "lat": 40.709077
  },
  {
    "comune": "Baranzate",
    "lng": 9.1140302,
    "lat": 45.5282202
  },
  {
    "comune": "Barasso",
    "lng": 8.756918599999999,
    "lat": 45.8400911
  },
  {
    "comune": "Baratili san pietro",
    "lng": 8.5545154,
    "lat": 39.9927719
  },
  {
    "comune": "Barbania",
    "lng": 7.631205400000001,
    "lat": 45.2913024
  },
  {
    "comune": "Barbara",
    "lng": 13.0254373,
    "lat": 43.5790993
  },
  {
    "comune": "Barbarano mossano",
    "lng": 11.5787332,
    "lat": 45.3924306
  },
  {
    "comune": "Barbarano romano",
    "lng": 12.0671746,
    "lat": 42.2493916
  },
  {
    "comune": "Barbaresco",
    "lng": 8.0835572,
    "lat": 44.7232618
  },
  {
    "comune": "Barbariga",
    "lng": 10.0558309,
    "lat": 45.4050808
  },
  {
    "comune": "Barbata",
    "lng": 9.776350299999999,
    "lat": 45.4754213
  },
  {
    "comune": "Barberino di mugello",
    "lng": 11.2297105,
    "lat": 44.0153978
  },
  {
    "comune": "Barberino tavarnelle",
    "lng": 11.1722658,
    "lat": 43.5620883
  },
  {
    "comune": "Barbianello",
    "lng": 9.202138399999999,
    "lat": 45.0740336
  },
  {
    "comune": "Barbiano",
    "lng": 11.5011683,
    "lat": 46.6051628
  },
  {
    "comune": "Barbona",
    "lng": 11.7034235,
    "lat": 45.1031957
  },
  {
    "comune": "Barcellona pozzo di gotto",
    "lng": 15.2128482,
    "lat": 38.1472621
  },
  {
    "comune": "Barcis",
    "lng": 12.5592842,
    "lat": 46.19071779999999
  },
  {
    "comune": "Bard",
    "lng": 7.7455303,
    "lat": 45.6090947
  },
  {
    "comune": "Bardello",
    "lng": 8.6981446,
    "lat": 45.83481159999999
  },
  {
    "comune": "Bardi",
    "lng": 9.7313689,
    "lat": 44.6336905
  },
  {
    "comune": "Bardineto",
    "lng": 8.1352668,
    "lat": 44.19064729999999
  },
  {
    "comune": "Bardolino",
    "lng": 10.6914197,
    "lat": 45.5453076
  },
  {
    "comune": "Bardonecchia",
    "lng": 6.6960506,
    "lat": 45.07428609999999
  },
  {
    "comune": "Bareggio",
    "lng": 8.9963424,
    "lat": 45.478212
  },
  {
    "comune": "Barengo",
    "lng": 8.5121615,
    "lat": 45.5772464
  },
  {
    "comune": "Baressa",
    "lng": 8.8757772,
    "lat": 39.7142326
  },
  {
    "comune": "Barete",
    "lng": 13.2811157,
    "lat": 42.4501874
  },
  {
    "comune": "Barga",
    "lng": 10.4822833,
    "lat": 44.0756341
  },
  {
    "comune": "Bargagli",
    "lng": 9.0847566,
    "lat": 44.4280963
  },
  {
    "comune": "Barge",
    "lng": 7.326054500000001,
    "lat": 44.7260036
  },
  {
    "comune": "Barghe",
    "lng": 10.4073605,
    "lat": 45.6792624
  },
  {
    "comune": "Bari",
    "lng": 16.8718715,
    "lat": 41.1171432
  },
  {
    "comune": "Bari sardo",
    "lng": 9.643147599999999,
    "lat": 39.8425282
  },
  {
    "comune": "Bariano",
    "lng": 9.710016399999999,
    "lat": 45.5144989
  },
  {
    "comune": "Baricella",
    "lng": 11.5311907,
    "lat": 44.6452355
  },
  {
    "comune": "Barile",
    "lng": 15.6940454,
    "lat": 40.9534346
  },
  {
    "comune": "Barisciano",
    "lng": 13.5925304,
    "lat": 42.3232619
  },
  {
    "comune": "Barlassina",
    "lng": 9.1315181,
    "lat": 45.6553444
  },
  {
    "comune": "Barletta",
    "lng": 16.2838207,
    "lat": 41.3196635
  },
  {
    "comune": "Barni",
    "lng": 9.2661451,
    "lat": 45.9125166
  },
  {
    "comune": "Barolo",
    "lng": 7.9403041,
    "lat": 44.6088032
  },
  {
    "comune": "Barone canavese",
    "lng": 7.8717794,
    "lat": 45.3261307
  },
  {
    "comune": "Baronissi",
    "lng": 14.7704471,
    "lat": 40.7462408
  },
  {
    "comune": "Barrafranca",
    "lng": 14.2008648,
    "lat": 37.3754325
  },
  {
    "comune": "Barrali",
    "lng": 9.1011772,
    "lat": 39.4761138
  },
  {
    "comune": "Barrea",
    "lng": 13.9890011,
    "lat": 41.7577553
  },
  {
    "comune": "Barumini",
    "lng": 9.0013472,
    "lat": 39.7036715
  },
  {
    "comune": "Barzago",
    "lng": 9.316780399999999,
    "lat": 45.7551783
  },
  {
    "comune": "Barzana",
    "lng": 9.5697333,
    "lat": 45.7340622
  },
  {
    "comune": "Barzano'",
    "lng": 9.3134807,
    "lat": 45.7324264
  },
  {
    "comune": "Barzio",
    "lng": 9.4656896,
    "lat": 45.9436583
  },
  {
    "comune": "Basaluzzo",
    "lng": 8.7061621,
    "lat": 44.7662116
  },
  {
    "comune": "Bascape'",
    "lng": 9.312533199999999,
    "lat": 45.3072913
  },
  {
    "comune": "Baschi",
    "lng": 12.2163084,
    "lat": 42.66938649999999
  },
  {
    "comune": "Basciano",
    "lng": 13.7347091,
    "lat": 42.59205
  },
  {
    "comune": "Baselga di pine'",
    "lng": 11.2574845,
    "lat": 46.1243042
  },
  {
    "comune": "Baselice",
    "lng": 14.9732297,
    "lat": 41.3920535
  },
  {
    "comune": "Basiano",
    "lng": 9.4645763,
    "lat": 45.580442
  },
  {
    "comune": "Basico'",
    "lng": 15.0618753,
    "lat": 38.0614255
  },
  {
    "comune": "Basiglio",
    "lng": 9.1645314,
    "lat": 45.35096490000001
  },
  {
    "comune": "Basiliano",
    "lng": 13.106035,
    "lat": 46.0144484
  },
  {
    "comune": "Bassano bresciano",
    "lng": 10.1280267,
    "lat": 45.3266322
  },
  {
    "comune": "Bassano del grappa",
    "lng": 11.7272747,
    "lat": 45.7657286
  },
  {
    "comune": "Bassano in teverina",
    "lng": 12.3112463,
    "lat": 42.4659913
  },
  {
    "comune": "Bassano romano",
    "lng": 12.1880642,
    "lat": 42.22057179999999
  },
  {
    "comune": "Bassiano",
    "lng": 13.0269605,
    "lat": 41.5522068
  },
  {
    "comune": "Bassignana",
    "lng": 8.7308723,
    "lat": 45.0034736
  },
  {
    "comune": "Bastia",
    "lng": 9.450880999999999,
    "lat": 42.697283
  },
  {
    "comune": "Bastia mondovi'",
    "lng": 7.8921702,
    "lat": 44.4432333
  },
  {
    "comune": "Bastida pancarana",
    "lng": 9.1070864,
    "lat": 45.10052940000001
  },
  {
    "comune": "Bastiglia",
    "lng": 10.9999073,
    "lat": 44.7264962
  },
  {
    "comune": "Battaglia terme",
    "lng": 11.7823895,
    "lat": 45.2908281
  },
  {
    "comune": "Battifollo",
    "lng": 8.0192471,
    "lat": 44.3204871
  },
  {
    "comune": "Battipaglia",
    "lng": 14.9808362,
    "lat": 40.6093746
  },
  {
    "comune": "Battuda",
    "lng": 9.0770667,
    "lat": 45.2741759
  },
  {
    "comune": "Baucina",
    "lng": 13.5355513,
    "lat": 37.9268256
  },
  {
    "comune": "Bauladu",
    "lng": 8.670111,
    "lat": 40.0217601
  },
  {
    "comune": "Baunei",
    "lng": 9.6632721,
    "lat": 40.0317514
  },
  {
    "comune": "Baveno",
    "lng": 8.505581399999999,
    "lat": 45.9089803
  },
  {
    "comune": "Bedero valcuvia",
    "lng": 8.794270599999999,
    "lat": 45.9114218
  },
  {
    "comune": "Bedizzole",
    "lng": 10.4091313,
    "lat": 45.4953349
  },
  {
    "comune": "Bedollo",
    "lng": 11.3005914,
    "lat": 46.1647419
  },
  {
    "comune": "Bedonia",
    "lng": 9.5673479,
    "lat": 44.5427693
  },
  {
    "comune": "Bedulita",
    "lng": 9.5418406,
    "lat": 45.79354180000001
  },
  {
    "comune": "Bee",
    "lng": 8.580889299999999,
    "lat": 45.9611464
  },
  {
    "comune": "Beinasco",
    "lng": 7.5866647,
    "lat": 45.017016
  },
  {
    "comune": "Beinette",
    "lng": 7.645970999999999,
    "lat": 44.3646679
  },
  {
    "comune": "Belcastro",
    "lng": 16.7877434,
    "lat": 39.0205798
  },
  {
    "comune": "Belfiore",
    "lng": 11.2095501,
    "lat": 45.3821981
  },
  {
    "comune": "Belforte all'isauro",
    "lng": 12.3771748,
    "lat": 43.7171137
  },
  {
    "comune": "Belforte del chienti",
    "lng": 13.2381701,
    "lat": 43.1600824
  },
  {
    "comune": "Belforte monferrato",
    "lng": 8.661747199999999,
    "lat": 44.62500300000001
  },
  {
    "comune": "Belgioioso",
    "lng": 9.313989,
    "lat": 45.1596663
  },
  {
    "comune": "Belgirate",
    "lng": 8.5703743,
    "lat": 45.8384304
  },
  {
    "comune": "Bella",
    "lng": 12.4836756,
    "lat": 41.8463807
  },
  {
    "comune": "Bellagio",
    "lng": 9.246164199999999,
    "lat": 45.9641291
  },
  {
    "comune": "Bellano",
    "lng": 9.3022046,
    "lat": 46.0410379
  },
  {
    "comune": "Bellante",
    "lng": 13.8081966,
    "lat": 42.741198
  },
  {
    "comune": "Bellaria-igea marina",
    "lng": 12.4667204,
    "lat": 44.1343597
  },
  {
    "comune": "Bellegra",
    "lng": 13.0290645,
    "lat": 41.8796509
  },
  {
    "comune": "Bellino",
    "lng": 6.974603999999999,
    "lat": 44.5722456
  },
  {
    "comune": "Bellinzago lombardo",
    "lng": 9.4470619,
    "lat": 45.5366822
  },
  {
    "comune": "Bellinzago novarese",
    "lng": 8.642256,
    "lat": 45.5686401
  },
  {
    "comune": "Bellizzi",
    "lng": 14.9478622,
    "lat": 40.620022
  },
  {
    "comune": "Bellona",
    "lng": 14.2342192,
    "lat": 41.1625212
  },
  {
    "comune": "Bellosguardo",
    "lng": 15.3145301,
    "lat": 40.4244692
  },
  {
    "comune": "Belluno",
    "lng": 12.2167088,
    "lat": 46.1424635
  },
  {
    "comune": "Bellusco",
    "lng": 9.4208711,
    "lat": 45.61692679999999
  },
  {
    "comune": "Belmonte calabro",
    "lng": 16.0834555,
    "lat": 39.16205710000001
  },
  {
    "comune": "Belmonte castello",
    "lng": 13.8105051,
    "lat": 41.5792929
  },
  {
    "comune": "Belmonte del sannio",
    "lng": 14.421619,
    "lat": 41.8217446
  },
  {
    "comune": "Belmonte in sabina",
    "lng": 12.8802479,
    "lat": 42.3258196
  },
  {
    "comune": "Belmonte mezzagno",
    "lng": 13.3874997,
    "lat": 38.0479627
  },
  {
    "comune": "Belmonte piceno",
    "lng": 13.5379072,
    "lat": 43.0851057
  },
  {
    "comune": "Belpasso",
    "lng": 14.9768276,
    "lat": 37.5898196
  },
  {
    "comune": "Belsito",
    "lng": 16.2865386,
    "lat": 39.1738464
  },
  {
    "comune": "Belvedere di spinello",
    "lng": 16.8901194,
    "lat": 39.2077763
  },
  {
    "comune": "Belvedere langhe",
    "lng": 7.976812300000001,
    "lat": 44.489937
  },
  {
    "comune": "Belvedere marittimo",
    "lng": 15.8642593,
    "lat": 39.6494674
  },
  {
    "comune": "Belvedere ostrense",
    "lng": 13.1690011,
    "lat": 43.5830655
  },
  {
    "comune": "Belveglio",
    "lng": 8.3247682,
    "lat": 44.82951310000001
  },
  {
    "comune": "Belvi",
    "lng": 9.1850598,
    "lat": 39.9655097
  },
  {
    "comune": "Bema",
    "lng": 12.4711373,
    "lat": 41.8989319
  },
  {
    "comune": "Bene lario",
    "lng": 9.1840728,
    "lat": 46.0291883
  },
  {
    "comune": "Bene vagienna",
    "lng": 7.8269217,
    "lat": 44.5426467
  },
  {
    "comune": "Benestare",
    "lng": 16.1393723,
    "lat": 38.1836345
  },
  {
    "comune": "Benetutti",
    "lng": 9.1680231,
    "lat": 40.4557764
  },
  {
    "comune": "Benevello",
    "lng": 8.1063377,
    "lat": 44.6299521
  },
  {
    "comune": "Benevento",
    "lng": 14.7826208,
    "lat": 41.1297613
  },
  {
    "comune": "Benna",
    "lng": 8.128306199999999,
    "lat": 45.5091269
  },
  {
    "comune": "Bentivoglio",
    "lng": 11.4167591,
    "lat": 44.63592269999999
  },
  {
    "comune": "Berbenno",
    "lng": 9.5702997,
    "lat": 45.8141972
  },
  {
    "comune": "Berbenno di valtellina",
    "lng": 9.7463719,
    "lat": 46.1696969
  },
  {
    "comune": "Berceto",
    "lng": 9.968863599999999,
    "lat": 44.5455393
  },
  {
    "comune": "Berchidda",
    "lng": 9.1642774,
    "lat": 40.7859074
  },
  {
    "comune": "Beregazzo con figliaro",
    "lng": 8.953056499999999,
    "lat": 45.7745251
  },
  {
    "comune": "Bereguardo",
    "lng": 9.0279236,
    "lat": 45.2581623
  },
  {
    "comune": "Bergamasco",
    "lng": 8.4480795,
    "lat": 44.8275517
  },
  {
    "comune": "Bergamo",
    "lng": 9.6772698,
    "lat": 45.6982642
  },
  {
    "comune": "Bergantino",
    "lng": 11.2530004,
    "lat": 45.0729929
  },
  {
    "comune": "Bergeggi",
    "lng": 8.4386301,
    "lat": 44.2491073
  },
  {
    "comune": "Bergolo",
    "lng": 8.181655899999999,
    "lat": 44.5473195
  },
  {
    "comune": "Berlingo",
    "lng": 10.0315736,
    "lat": 45.5023196
  },
  {
    "comune": "Bernalda",
    "lng": 16.6895946,
    "lat": 40.4109811
  },
  {
    "comune": "Bernareggio",
    "lng": 9.4053851,
    "lat": 45.6466274
  },
  {
    "comune": "Bernate ticino",
    "lng": 8.809643699999999,
    "lat": 45.47384599999999
  },
  {
    "comune": "Bernezzo",
    "lng": 7.438792899999999,
    "lat": 44.3840175
  },
  {
    "comune": "Bertinoro",
    "lng": 12.1351499,
    "lat": 44.149228
  },
  {
    "comune": "Bertiolo",
    "lng": 13.047528,
    "lat": 45.9438964
  },
  {
    "comune": "Bertonico",
    "lng": 9.6687882,
    "lat": 45.2345995
  },
  {
    "comune": "Berzano di san pietro",
    "lng": 7.9530677,
    "lat": 45.0953386
  },
  {
    "comune": "Berzano di tortona",
    "lng": 8.9525869,
    "lat": 44.8755558
  },
  {
    "comune": "Berzo demo",
    "lng": 10.3328977,
    "lat": 46.09254490000001
  },
  {
    "comune": "Berzo inferiore",
    "lng": 10.2793066,
    "lat": 45.9322167
  },
  {
    "comune": "Berzo san fermo",
    "lng": 9.903255999999999,
    "lat": 45.7180779
  },
  {
    "comune": "Besana in brianza",
    "lng": 9.2777856,
    "lat": 45.7026792
  },
  {
    "comune": "Besano",
    "lng": 8.888543499999999,
    "lat": 45.8882638
  },
  {
    "comune": "Besate",
    "lng": 8.9688043,
    "lat": 45.3119813
  },
  {
    "comune": "Besenello",
    "lng": 11.1122117,
    "lat": 45.9409016
  },
  {
    "comune": "Besenzone",
    "lng": 9.952703800000002,
    "lat": 44.9865659
  },
  {
    "comune": "Besnate",
    "lng": 8.7650437,
    "lat": 45.6983694
  },
  {
    "comune": "Besozzo",
    "lng": 8.6708467,
    "lat": 45.8435928
  },
  {
    "comune": "Bessude",
    "lng": 8.726981199999999,
    "lat": 40.5531166
  },
  {
    "comune": "Bettola",
    "lng": 9.6058831,
    "lat": 44.77652339999999
  },
  {
    "comune": "Bettona",
    "lng": 12.4863265,
    "lat": 43.0115564
  },
  {
    "comune": "Beura-cardezza",
    "lng": 8.2979264,
    "lat": 46.0798506
  },
  {
    "comune": "Bevagna",
    "lng": 12.6092683,
    "lat": 42.93728550000001
  },
  {
    "comune": "Beverino",
    "lng": 9.779022699999999,
    "lat": 44.19685250000001
  },
  {
    "comune": "Bevilacqua",
    "lng": 11.3920594,
    "lat": 45.22482429999999
  },
  {
    "comune": "Biancavilla",
    "lng": 14.870591,
    "lat": 37.6412127
  },
  {
    "comune": "Bianchi",
    "lng": 12.5226268,
    "lat": 41.9297526
  },
  {
    "comune": "Bianco",
    "lng": 16.1519461,
    "lat": 38.0875024
  },
  {
    "comune": "Biandrate",
    "lng": 8.4644471,
    "lat": 45.4482748
  },
  {
    "comune": "Biandronno",
    "lng": 8.7173149,
    "lat": 45.814342
  },
  {
    "comune": "Bianzano",
    "lng": 9.8949652,
    "lat": 45.7752765
  },
  {
    "comune": "Bianze'",
    "lng": 8.119601,
    "lat": 45.30521230000001
  },
  {
    "comune": "Bianzone",
    "lng": 10.0928601,
    "lat": 46.2001619
  },
  {
    "comune": "Biassono",
    "lng": 9.2768608,
    "lat": 45.634039
  },
  {
    "comune": "Bibbiano",
    "lng": 10.4735892,
    "lat": 44.6641641
  },
  {
    "comune": "Bibbiena",
    "lng": 11.8158559,
    "lat": 43.694125
  },
  {
    "comune": "Bibbona",
    "lng": 10.608395,
    "lat": 43.2689332
  },
  {
    "comune": "Bibiana",
    "lng": 7.287337699999998,
    "lat": 44.7909785
  },
  {
    "comune": "Biccari",
    "lng": 15.1980786,
    "lat": 41.3984747
  },
  {
    "comune": "Bicinicco",
    "lng": 13.2493963,
    "lat": 45.9226203
  },
  {
    "comune": "Bidoni'",
    "lng": 8.9354249,
    "lat": 40.113133
  },
  {
    "comune": "Biella",
    "lng": 8.0583397,
    "lat": 45.56288420000001
  },
  {
    "comune": "Bienno",
    "lng": 10.2951491,
    "lat": 45.93560340000001
  },
  {
    "comune": "Bieno",
    "lng": 11.5543543,
    "lat": 46.08040219999999
  },
  {
    "comune": "Bientina",
    "lng": 10.6534443,
    "lat": 43.7216911
  },
  {
    "comune": "Binago",
    "lng": 8.916701399999999,
    "lat": 45.7797706
  },
  {
    "comune": "Binasco",
    "lng": 9.0996141,
    "lat": 45.3317093
  },
  {
    "comune": "Binetto",
    "lng": 16.7103156,
    "lat": 41.0247641
  },
  {
    "comune": "Bioglio",
    "lng": 8.1297631,
    "lat": 45.613646
  },
  {
    "comune": "Bionaz",
    "lng": 7.422959099999999,
    "lat": 45.8740774
  },
  {
    "comune": "Bione",
    "lng": 10.3310392,
    "lat": 45.6742267
  },
  {
    "comune": "Birori",
    "lng": 8.8197381,
    "lat": 40.2525599
  },
  {
    "comune": "Bisaccia",
    "lng": 15.3758878,
    "lat": 41.0153354
  },
  {
    "comune": "Bisacquino",
    "lng": 13.2591456,
    "lat": 37.7056085
  },
  {
    "comune": "Bisceglie",
    "lng": 16.502065,
    "lat": 41.242726
  },
  {
    "comune": "Bisegna",
    "lng": 13.7636752,
    "lat": 41.9059484
  },
  {
    "comune": "Bisenti",
    "lng": 13.8023139,
    "lat": 42.5283522
  },
  {
    "comune": "Bisignano",
    "lng": 16.2870302,
    "lat": 39.512583
  },
  {
    "comune": "Bistagno",
    "lng": 8.3689427,
    "lat": 44.6605041
  },
  {
    "comune": "Bisuschio",
    "lng": 8.8711869,
    "lat": 45.8740202
  },
  {
    "comune": "Bitetto",
    "lng": 16.7481104,
    "lat": 41.0401091
  },
  {
    "comune": "Bitonto",
    "lng": 16.6910569,
    "lat": 41.1078251
  },
  {
    "comune": "Bitritto",
    "lng": 16.8237374,
    "lat": 41.0360783
  },
  {
    "comune": "Bitti",
    "lng": 9.388730299999999,
    "lat": 40.48052879999999
  },
  {
    "comune": "Bivona",
    "lng": 13.416501,
    "lat": 37.6002307
  },
  {
    "comune": "Bivongi",
    "lng": 16.4516279,
    "lat": 38.4836727
  },
  {
    "comune": "Bizzarone",
    "lng": 8.9416917,
    "lat": 45.835434
  },
  {
    "comune": "Bleggio superiore",
    "lng": 10.7969007,
    "lat": 46.0147146
  },
  {
    "comune": "Blello",
    "lng": 9.5710084,
    "lat": 45.8376494
  },
  {
    "comune": "Blera",
    "lng": 12.0254639,
    "lat": 42.2759082
  },
  {
    "comune": "Blessagno",
    "lng": 9.097598399999999,
    "lat": 45.9602442
  },
  {
    "comune": "Blevio",
    "lng": 9.102373199999999,
    "lat": 45.8380582
  },
  {
    "comune": "Blufi",
    "lng": 14.0769633,
    "lat": 37.752314
  },
  {
    "comune": "Boara pisani",
    "lng": 11.7787462,
    "lat": 45.1106628
  },
  {
    "comune": "Bobbio",
    "lng": 9.3859502,
    "lat": 44.7700875
  },
  {
    "comune": "Bobbio pellice",
    "lng": 7.119328899999999,
    "lat": 44.8079062
  },
  {
    "comune": "Boca",
    "lng": 8.4002122,
    "lat": 45.6855033
  },
  {
    "comune": "Bocchigliero",
    "lng": 16.7538419,
    "lat": 39.4176527
  },
  {
    "comune": "Boccioleto",
    "lng": 8.1122894,
    "lat": 45.8301644
  },
  {
    "comune": "Bocenago",
    "lng": 10.7597977,
    "lat": 46.1195294
  },
  {
    "comune": "Bodio lomnago",
    "lng": 8.751243299999999,
    "lat": 45.7896373
  },
  {
    "comune": "Boffalora d'adda",
    "lng": 9.4952188,
    "lat": 45.358903
  },
  {
    "comune": "Boffalora sopra ticino",
    "lng": 8.8293459,
    "lat": 45.46282710000001
  },
  {
    "comune": "Bogliasco",
    "lng": 9.0647653,
    "lat": 44.3792927
  },
  {
    "comune": "Bognanco",
    "lng": 8.167023499999999,
    "lat": 46.1379629
  },
  {
    "comune": "Bogogno",
    "lng": 8.5374508,
    "lat": 45.66372339999999
  },
  {
    "comune": "Boissano",
    "lng": 8.2267665,
    "lat": 44.136106
  },
  {
    "comune": "Bojano",
    "lng": 14.4736937,
    "lat": 41.4820727
  },
  {
    "comune": "Bolano",
    "lng": 9.895179599999999,
    "lat": 44.1886164
  },
  {
    "comune": "Bolgare",
    "lng": 9.8138918,
    "lat": 45.6340243
  },
  {
    "comune": "Bollate",
    "lng": 9.1107151,
    "lat": 45.5451273
  },
  {
    "comune": "Bollengo",
    "lng": 7.9361679,
    "lat": 45.4712557
  },
  {
    "comune": "Bologna",
    "lng": 11.3426162,
    "lat": 44.494887
  },
  {
    "comune": "Bolognano",
    "lng": 13.955007,
    "lat": 42.2175727
  },
  {
    "comune": "Bolognetta",
    "lng": 13.4572578,
    "lat": 37.9632187
  },
  {
    "comune": "Bolognola",
    "lng": 13.2174272,
    "lat": 42.9975931
  },
  {
    "comune": "Bolotana",
    "lng": 8.955823299999999,
    "lat": 40.3278289
  },
  {
    "comune": "Bolsena",
    "lng": 11.9864377,
    "lat": 42.6442035
  },
  {
    "comune": "Boltiere",
    "lng": 9.5792191,
    "lat": 45.5996584
  },
  {
    "comune": "Bolzano",
    "lng": 11.3547582,
    "lat": 46.4982953
  },
  {
    "comune": "Bolzano novarese",
    "lng": 8.4453908,
    "lat": 45.7627725
  },
  {
    "comune": "Bolzano vicentino",
    "lng": 11.6219625,
    "lat": 45.6004699
  },
  {
    "comune": "Bomarzo",
    "lng": 12.2502796,
    "lat": 42.48672
  },
  {
    "comune": "Bomba",
    "lng": 14.3663983,
    "lat": 42.03459549999999
  },
  {
    "comune": "Bompensiere",
    "lng": 13.7807746,
    "lat": 37.4738264
  },
  {
    "comune": "Bompietro",
    "lng": 14.1003182,
    "lat": 37.7470889
  },
  {
    "comune": "Bomporto",
    "lng": 11.041672,
    "lat": 44.7284278
  },
  {
    "comune": "Bonarcado",
    "lng": 8.6550283,
    "lat": 40.0981498
  },
  {
    "comune": "Bonassola",
    "lng": 9.5835215,
    "lat": 44.1821302
  },
  {
    "comune": "Bonate sopra",
    "lng": 9.5587202,
    "lat": 45.67985969999999
  },
  {
    "comune": "Bonate sotto",
    "lng": 9.5581496,
    "lat": 45.6659021
  },
  {
    "comune": "Bonavigo",
    "lng": 11.2762972,
    "lat": 45.2583269
  },
  {
    "comune": "Bondeno",
    "lng": 11.4230043,
    "lat": 44.8862233
  },
  {
    "comune": "Bondone",
    "lng": 10.5760891,
    "lat": 45.800025
  },
  {
    "comune": "Bonea",
    "lng": 14.6191771,
    "lat": 41.0752031
  },
  {
    "comune": "Bonefro",
    "lng": 14.9358283,
    "lat": 41.7042818
  },
  {
    "comune": "Bonemerse",
    "lng": 10.0983805,
    "lat": 45.1109723
  },
  {
    "comune": "Bonifati",
    "lng": 15.898056,
    "lat": 39.5849829
  },
  {
    "comune": "Bonito",
    "lng": 15.0011826,
    "lat": 41.09845079999999
  },
  {
    "comune": "Bonnanaro",
    "lng": 8.7756556,
    "lat": 40.5392365
  },
  {
    "comune": "Bono",
    "lng": 9.030157299999999,
    "lat": 40.4169166
  },
  {
    "comune": "Bonorva",
    "lng": 8.7688864,
    "lat": 40.4168517
  },
  {
    "comune": "Bonvicino",
    "lng": 8.0192471,
    "lat": 44.5081999
  },
  {
    "comune": "Borbona",
    "lng": 13.1334758,
    "lat": 42.5137631
  },
  {
    "comune": "Borca di cadore",
    "lng": 12.21939,
    "lat": 46.4357507
  },
  {
    "comune": "Bordano",
    "lng": 13.1044981,
    "lat": 46.3153864
  },
  {
    "comune": "Bordighera",
    "lng": 7.6722799,
    "lat": 43.7806979
  },
  {
    "comune": "Bordolano",
    "lng": 9.987102799999999,
    "lat": 45.28963599999999
  },
  {
    "comune": "Bore",
    "lng": 9.8260297,
    "lat": 44.7167368
  },
  {
    "comune": "Boretto",
    "lng": 10.5578961,
    "lat": 44.9009472
  },
  {
    "comune": "Borgarello",
    "lng": 9.1493519,
    "lat": 45.2410196
  },
  {
    "comune": "Borgaro torinese",
    "lng": 7.6696943,
    "lat": 45.15002570000001
  },
  {
    "comune": "Borgetto",
    "lng": 13.1567337,
    "lat": 38.041984
  },
  {
    "comune": "Borghetto d'arroscia",
    "lng": 7.979512299999999,
    "lat": 44.0556635
  },
  {
    "comune": "Borghetto di borbera",
    "lng": 8.9432751,
    "lat": 44.7306337
  },
  {
    "comune": "Borghetto di vara",
    "lng": 9.719692799999999,
    "lat": 44.2229031
  },
  {
    "comune": "Borghetto lodigiano",
    "lng": 9.4980341,
    "lat": 45.2125402
  },
  {
    "comune": "Borghetto santo spirito",
    "lng": 8.237704899999999,
    "lat": 44.1164362
  },
  {
    "comune": "Borghi",
    "lng": 12.3553679,
    "lat": 44.0315778
  },
  {
    "comune": "Borgia",
    "lng": 16.5110797,
    "lat": 38.8269114
  },
  {
    "comune": "Borgiallo",
    "lng": 7.6674901,
    "lat": 45.4161623
  },
  {
    "comune": "Borgio verezzi",
    "lng": 8.3074754,
    "lat": 44.1597284
  },
  {
    "comune": "Borgo a mozzano",
    "lng": 10.5430409,
    "lat": 43.9784081
  },
  {
    "comune": "Borgo chiese",
    "lng": 10.5997701,
    "lat": 45.8894585
  },
  {
    "comune": "Borgo d'ale",
    "lng": 8.053489299999999,
    "lat": 45.3494071
  },
  {
    "comune": "Borgo di terzo",
    "lng": 9.890787099999999,
    "lat": 45.7206386
  },
  {
    "comune": "Borgo lares",
    "lng": 10.748658,
    "lat": 46.0343606
  },
  {
    "comune": "Borgo mantovano",
    "lng": 11.1305594,
    "lat": 45.0502932
  },
  {
    "comune": "Borgo pace",
    "lng": 12.293412,
    "lat": 43.6580956
  },
  {
    "comune": "Borgo priolo",
    "lng": 9.1424352,
    "lat": 44.9425166
  },
  {
    "comune": "Borgo san dalmazzo",
    "lng": 7.484153699999999,
    "lat": 44.3299722
  },
  {
    "comune": "Borgo san giacomo",
    "lng": 9.967589,
    "lat": 45.3485464
  },
  {
    "comune": "Borgo san giovanni",
    "lng": 9.436007199999999,
    "lat": 45.2776094
  },
  {
    "comune": "Borgo san lorenzo",
    "lng": 11.3847483,
    "lat": 43.9543788
  },
  {
    "comune": "Borgo san martino",
    "lng": 8.5316925,
    "lat": 45.0886794
  },
  {
    "comune": "Borgo san siro",
    "lng": 8.912530799999999,
    "lat": 45.2348453
  },
  {
    "comune": "Borgo ticino",
    "lng": 8.604786599999999,
    "lat": 45.68551979999999
  },
  {
    "comune": "Borgo tossignano",
    "lng": 11.5881951,
    "lat": 44.2801082
  },
  {
    "comune": "Borgo val di taro",
    "lng": 9.7682402,
    "lat": 44.4899739
  },
  {
    "comune": "Borgo valbelluna",
    "lng": 12.0693106,
    "lat": 46.011574
  },
  {
    "comune": "Borgo valsugana",
    "lng": 11.4626055,
    "lat": 46.0528053
  },
  {
    "comune": "Borgo velino",
    "lng": 13.0594742,
    "lat": 42.4056645
  },
  {
    "comune": "Borgo veneto",
    "lng": 11.5337898,
    "lat": 45.2271651
  },
  {
    "comune": "Borgo vercelli",
    "lng": 8.4665068,
    "lat": 45.3577855
  },
  {
    "comune": "Borgo virgilio",
    "lng": 10.7937184,
    "lat": 45.0817922
  },
  {
    "comune": "Borgocarbonara",
    "lng": 11.2235,
    "lat": 45.03793
  },
  {
    "comune": "Borgofranco d'ivrea",
    "lng": 7.856136599999998,
    "lat": 45.51136109999999
  },
  {
    "comune": "Borgolavezzaro",
    "lng": 8.699548,
    "lat": 45.3184045
  },
  {
    "comune": "Borgomale",
    "lng": 8.1321078,
    "lat": 44.6212159
  },
  {
    "comune": "Borgomanero",
    "lng": 8.4624538,
    "lat": 45.69894410000001
  },
  {
    "comune": "Borgomaro",
    "lng": 7.949023599999999,
    "lat": 43.9748199
  },
  {
    "comune": "Borgomasino",
    "lng": 7.9763576,
    "lat": 45.3647781
  },
  {
    "comune": "Borgomezzavalle",
    "lng": 8.2150419,
    "lat": 46.0572521
  },
  {
    "comune": "Borgone susa",
    "lng": 7.2413254,
    "lat": 45.1227591
  },
  {
    "comune": "Borgonovo val tidone",
    "lng": 9.4637954,
    "lat": 45.0101773
  },
  {
    "comune": "Borgoratto alessandrino",
    "lng": 8.5398955,
    "lat": 44.8362673
  },
  {
    "comune": "Borgoratto mormorolo",
    "lng": 9.1934399,
    "lat": 44.9310169
  },
  {
    "comune": "Borgoricco",
    "lng": 11.9648136,
    "lat": 45.5308712
  },
  {
    "comune": "Borgorose",
    "lng": 13.235852,
    "lat": 42.1927685
  },
  {
    "comune": "Borgosatollo",
    "lng": 10.2402896,
    "lat": 45.4763482
  },
  {
    "comune": "Borgosesia",
    "lng": 8.2574163,
    "lat": 45.7293117
  },
  {
    "comune": "Bormida",
    "lng": 8.2322355,
    "lat": 44.2629488
  },
  {
    "comune": "Bormio",
    "lng": 10.3704671,
    "lat": 46.4663571
  },
  {
    "comune": "Bornasco",
    "lng": 9.2167497,
    "lat": 45.26156640000001
  },
  {
    "comune": "Borno",
    "lng": 10.1991177,
    "lat": 45.94631709999999
  },
  {
    "comune": "Boroneddu",
    "lng": 8.8717832,
    "lat": 40.1128998
  },
  {
    "comune": "Borore",
    "lng": 8.8035696,
    "lat": 40.2155265
  },
  {
    "comune": "Borrello",
    "lng": 14.3046883,
    "lat": 41.9178679
  },
  {
    "comune": "Borriana",
    "lng": -0.0848302,
    "lat": 39.8895925
  },
  {
    "comune": "Borso del grappa",
    "lng": 11.7993333,
    "lat": 45.82092460000001
  },
  {
    "comune": "Bortigali",
    "lng": 8.8376328,
    "lat": 40.2845913
  },
  {
    "comune": "Bortigiadas",
    "lng": 9.042497599999999,
    "lat": 40.8909278
  },
  {
    "comune": "Borutta",
    "lng": 8.7435458,
    "lat": 40.5225286
  },
  {
    "comune": "Borzonasca",
    "lng": 9.389889600000002,
    "lat": 44.4188525
  },
  {
    "comune": "Bosa",
    "lng": 8.5036658,
    "lat": 40.2952312
  },
  {
    "comune": "Bosaro",
    "lng": 11.7636258,
    "lat": 45.0019051
  },
  {
    "comune": "Boschi sant'anna",
    "lng": 11.3558906,
    "lat": 45.2183472
  },
  {
    "comune": "Bosco chiesanuova",
    "lng": 11.0270741,
    "lat": 45.6201376
  },
  {
    "comune": "Bosco marengo",
    "lng": 8.6786114,
    "lat": 44.822541
  },
  {
    "comune": "Bosconero",
    "lng": 7.765030099999999,
    "lat": 45.2679704
  },
  {
    "comune": "Boscoreale",
    "lng": 14.4814105,
    "lat": 40.7727586
  },
  {
    "comune": "Boscotrecase",
    "lng": 14.4611697,
    "lat": 40.7744684
  },
  {
    "comune": "Bosia",
    "lng": 8.1475271,
    "lat": 44.6009323
  },
  {
    "comune": "Bosio",
    "lng": 8.7811645,
    "lat": 44.57823270000001
  },
  {
    "comune": "Bosisio parini",
    "lng": 9.297858300000001,
    "lat": 45.79703130000001
  },
  {
    "comune": "Bosnasco",
    "lng": 9.358376999999999,
    "lat": 45.0649092
  },
  {
    "comune": "Bossico",
    "lng": 10.0452957,
    "lat": 45.8282373
  },
  {
    "comune": "Bossolasco",
    "lng": 8.0506227,
    "lat": 44.5275214
  },
  {
    "comune": "Botricello",
    "lng": 16.8554977,
    "lat": 38.9348164
  },
  {
    "comune": "Botrugno",
    "lng": 18.3244507,
    "lat": 40.06433759999999
  },
  {
    "comune": "Bottanuco",
    "lng": 9.5112092,
    "lat": 45.6416304
  },
  {
    "comune": "Botticino",
    "lng": 10.3239009,
    "lat": 45.5418371
  },
  {
    "comune": "Bottidda",
    "lng": 9.0088771,
    "lat": 40.3916495
  },
  {
    "comune": "Bova",
    "lng": 15.9582372,
    "lat": 38.0049221
  },
  {
    "comune": "Bova marina",
    "lng": 15.9245973,
    "lat": 37.9304476
  },
  {
    "comune": "Bovalino",
    "lng": 16.1639749,
    "lat": 38.1565469
  },
  {
    "comune": "Bovegno",
    "lng": 10.2683094,
    "lat": 45.7901654
  },
  {
    "comune": "Boves",
    "lng": 7.5515704,
    "lat": 44.3280068
  },
  {
    "comune": "Bovezzo",
    "lng": 10.2412181,
    "lat": 45.5929206
  },
  {
    "comune": "Boville ernica",
    "lng": 13.4724486,
    "lat": 41.6409254
  },
  {
    "comune": "Bovino",
    "lng": 15.3716684,
    "lat": 41.2682521
  },
  {
    "comune": "Bovisio-masciago",
    "lng": 9.152254899999999,
    "lat": 45.6107946
  },
  {
    "comune": "Bovolenta",
    "lng": 11.9396411,
    "lat": 45.2748146
  },
  {
    "comune": "Bovolone",
    "lng": 11.1206081,
    "lat": 45.257693
  },
  {
    "comune": "Bozzole",
    "lng": 8.6049218,
    "lat": 45.0684699
  },
  {
    "comune": "Bozzolo",
    "lng": 10.4807365,
    "lat": 45.109317
  },
  {
    "comune": "Bra",
    "lng": 7.8551164,
    "lat": 44.6923429
  },
  {
    "comune": "Bracca",
    "lng": 9.707141199999999,
    "lat": 45.82306750000001
  },
  {
    "comune": "Bracciano",
    "lng": 12.1761422,
    "lat": 42.1017979
  },
  {
    "comune": "Bracigliano",
    "lng": 14.7084684,
    "lat": 40.8231903
  },
  {
    "comune": "Braies",
    "lng": 12.1281419,
    "lat": 46.7174671
  },
  {
    "comune": "Brallo di pregola",
    "lng": 9.2815623,
    "lat": 44.7380337
  },
  {
    "comune": "Brancaleone",
    "lng": 16.0757749,
    "lat": 37.9679084
  },
  {
    "comune": "Brandico",
    "lng": 10.0443841,
    "lat": 45.4568563
  },
  {
    "comune": "Brandizzo",
    "lng": 7.8365246,
    "lat": 45.1767924
  },
  {
    "comune": "Branzi",
    "lng": 9.7608978,
    "lat": 46.0058509
  },
  {
    "comune": "Braone",
    "lng": 10.3429834,
    "lat": 45.9896921
  },
  {
    "comune": "Brebbia",
    "lng": 8.6491857,
    "lat": 45.8286234
  },
  {
    "comune": "Breda di piave",
    "lng": 12.3557211,
    "lat": 45.7203901
  },
  {
    "comune": "Bregano",
    "lng": 8.6901545,
    "lat": 45.8253891
  },
  {
    "comune": "Breganze",
    "lng": 11.5574545,
    "lat": 45.708245
  },
  {
    "comune": "Bregnano",
    "lng": 9.0582072,
    "lat": 45.6957823
  },
  {
    "comune": "Brembate",
    "lng": 9.5592321,
    "lat": 45.604398
  },
  {
    "comune": "Brembate di sopra",
    "lng": 9.5779716,
    "lat": 45.7164024
  },
  {
    "comune": "Brembio",
    "lng": 9.5724983,
    "lat": 45.213231
  },
  {
    "comune": "Breme",
    "lng": 8.6250997,
    "lat": 45.1274095
  },
  {
    "comune": "Brendola",
    "lng": 11.4462707,
    "lat": 45.4723353
  },
  {
    "comune": "Brenna",
    "lng": 9.1867203,
    "lat": 45.745204
  },
  {
    "comune": "Brennero",
    "lng": 11.5060678,
    "lat": 47.0017816
  },
  {
    "comune": "Breno",
    "lng": 10.4262024,
    "lat": 45.9339231
  },
  {
    "comune": "Brenta",
    "lng": 11.7546071,
    "lat": 45.6142737
  },
  {
    "comune": "Brentino belluno",
    "lng": 10.8727972,
    "lat": 45.64236
  },
  {
    "comune": "Brentonico",
    "lng": 10.9495574,
    "lat": 45.81712659999999
  },
  {
    "comune": "Brenzone",
    "lng": 10.7675388,
    "lat": 45.7084285
  },
  {
    "comune": "Brescello",
    "lng": 10.5180777,
    "lat": 44.89876940000001
  },
  {
    "comune": "Brescia",
    "lng": 10.2118019,
    "lat": 45.5415526
  },
  {
    "comune": "Bresimo",
    "lng": 10.9309677,
    "lat": 46.4277384
  },
  {
    "comune": "Bressana bottarone",
    "lng": 9.1365417,
    "lat": 45.0778349
  },
  {
    "comune": "Bressanone",
    "lng": 11.6572436,
    "lat": 46.7177048
  },
  {
    "comune": "Bressanvido",
    "lng": 11.6353839,
    "lat": 45.6484339
  },
  {
    "comune": "Bresso",
    "lng": 9.190392800000001,
    "lat": 45.5391048
  },
  {
    "comune": "Brez",
    "lng": 11.1070072,
    "lat": 46.4310502
  },
  {
    "comune": "Brezzo di bedero",
    "lng": 8.7090126,
    "lat": 45.9777526
  },
  {
    "comune": "Briaglia",
    "lng": 7.8776023,
    "lat": 44.3961575
  },
  {
    "comune": "Briatico",
    "lng": 16.0331036,
    "lat": 38.725017
  },
  {
    "comune": "Bricherasio",
    "lng": 7.303519199999998,
    "lat": 44.8250332
  },
  {
    "comune": "Brienno",
    "lng": 9.131444,
    "lat": 45.9122424
  },
  {
    "comune": "Brienza",
    "lng": 15.627619,
    "lat": 40.4764155
  },
  {
    "comune": "Briga alta",
    "lng": 7.7090854,
    "lat": 44.1298308
  },
  {
    "comune": "Briga novarese",
    "lng": 8.4503785,
    "lat": 45.737419
  },
  {
    "comune": "Brignano gera d'adda",
    "lng": 9.6471512,
    "lat": 45.5452605
  },
  {
    "comune": "Brignano-frascata",
    "lng": 9.040289999999999,
    "lat": 44.8130031
  },
  {
    "comune": "Brindisi",
    "lng": 17.9417616,
    "lat": 40.6327278
  },
  {
    "comune": "Brindisi montagna",
    "lng": 15.9392886,
    "lat": 40.6104239
  },
  {
    "comune": "Brinzio",
    "lng": 8.795257099999999,
    "lat": 45.8872668
  },
  {
    "comune": "Briona",
    "lng": 8.481561,
    "lat": 45.5412141
  },
  {
    "comune": "Brione",
    "lng": 10.1558906,
    "lat": 45.6446654
  },
  {
    "comune": "Briosco",
    "lng": 9.239643899999999,
    "lat": 45.7091021
  },
  {
    "comune": "Brisighella",
    "lng": 11.7690457,
    "lat": 44.2218069
  },
  {
    "comune": "Brissago-valtravaglia",
    "lng": 8.7487358,
    "lat": 45.9496727
  },
  {
    "comune": "Brissogne",
    "lng": 7.407738999999999,
    "lat": 45.7115234
  },
  {
    "comune": "Brittoli",
    "lng": 13.8506109,
    "lat": 42.3078393
  },
  {
    "comune": "Brivio",
    "lng": 9.4463108,
    "lat": 45.7465403
  },
  {
    "comune": "Broccostella",
    "lng": 13.6345727,
    "lat": 41.7042328
  },
  {
    "comune": "Brogliano",
    "lng": 11.3645174,
    "lat": 45.5875047
  },
  {
    "comune": "Brognaturo",
    "lng": 16.3429834,
    "lat": 38.601277
  },
  {
    "comune": "Brolo",
    "lng": 14.8308695,
    "lat": 38.147876
  },
  {
    "comune": "Brondello",
    "lng": 7.405822300000001,
    "lat": 44.5999456
  },
  {
    "comune": "Broni",
    "lng": 9.256916600000002,
    "lat": 45.0642643
  },
  {
    "comune": "Bronte",
    "lng": 14.8306658,
    "lat": 37.78835
  },
  {
    "comune": "Bronzolo",
    "lng": 11.3206416,
    "lat": 46.4040482
  },
  {
    "comune": "Brossasco",
    "lng": 7.362781699999998,
    "lat": 44.5699208
  },
  {
    "comune": "Brosso",
    "lng": 7.8028252,
    "lat": 45.49240289999999
  },
  {
    "comune": "Brovello-carpugnino",
    "lng": 8.5326726,
    "lat": 45.8422787
  },
  {
    "comune": "Brozolo",
    "lng": 8.0747166,
    "lat": 45.1126174
  },
  {
    "comune": "Brugherio",
    "lng": 9.2987928,
    "lat": 45.548917
  },
  {
    "comune": "Brugine",
    "lng": 11.9957042,
    "lat": 45.29578859999999
  },
  {
    "comune": "Brugnato",
    "lng": 9.7209853,
    "lat": 44.2362753
  },
  {
    "comune": "Brugnera",
    "lng": 12.526491,
    "lat": 45.9019925
  },
  {
    "comune": "Bruino",
    "lng": 7.4750529,
    "lat": 45.0150142
  },
  {
    "comune": "Brumano",
    "lng": 9.5022031,
    "lat": 45.8547361
  },
  {
    "comune": "Brunate",
    "lng": 9.0970379,
    "lat": 45.8200931
  },
  {
    "comune": "Brunello",
    "lng": 12.4807631,
    "lat": 41.9044998
  },
  {
    "comune": "Brunico",
    "lng": 11.9515441,
    "lat": 46.78860599999999
  },
  {
    "comune": "Bruno",
    "lng": 12.3771404,
    "lat": 42.014638
  },
  {
    "comune": "Brusaporto",
    "lng": 9.7616632,
    "lat": 45.6712387
  },
  {
    "comune": "Brusasco",
    "lng": 8.0599495,
    "lat": 45.15615700000001
  },
  {
    "comune": "Brusciano",
    "lng": 14.4237102,
    "lat": 40.9208438
  },
  {
    "comune": "Brusimpiano",
    "lng": 8.8893022,
    "lat": 45.9493372
  },
  {
    "comune": "Brusnengo",
    "lng": 8.2527869,
    "lat": 45.5913967
  },
  {
    "comune": "Brusson",
    "lng": 7.729559499999999,
    "lat": 45.758063
  },
  {
    "comune": "Bruzolo",
    "lng": 7.190722500000001,
    "lat": 45.1432035
  },
  {
    "comune": "Bruzzano zeffirio",
    "lng": 16.0818761,
    "lat": 38.0125822
  },
  {
    "comune": "Bubbiano",
    "lng": 9.00386,
    "lat": 45.3283008
  },
  {
    "comune": "Bubbio",
    "lng": 8.2935321,
    "lat": 44.66414959999999
  },
  {
    "comune": "Buccheri",
    "lng": 14.8481113,
    "lat": 37.1269486
  },
  {
    "comune": "Bucchianico",
    "lng": 14.1814686,
    "lat": 42.3005543
  },
  {
    "comune": "Bucciano",
    "lng": 14.5830082,
    "lat": 41.0825585
  },
  {
    "comune": "Buccinasco",
    "lng": 9.103170500000001,
    "lat": 45.4127669
  },
  {
    "comune": "Buccino",
    "lng": 15.3812792,
    "lat": 40.6328548
  },
  {
    "comune": "Bucine",
    "lng": 11.6148932,
    "lat": 43.4780645
  },
  {
    "comune": "Buddus\u00f2",
    "lng": 9.255043500000001,
    "lat": 40.5770405
  },
  {
    "comune": "Budoia",
    "lng": 12.5347141,
    "lat": 46.0482962
  },
  {
    "comune": "Budoni",
    "lng": 9.7052936,
    "lat": 40.7039391
  },
  {
    "comune": "Budrio",
    "lng": 11.5360478,
    "lat": 44.5388539
  },
  {
    "comune": "Buggerru",
    "lng": 8.402429999999999,
    "lat": 39.399722
  },
  {
    "comune": "Buggiano",
    "lng": 10.726696,
    "lat": 43.8897853
  },
  {
    "comune": "Buglio in monte",
    "lng": 9.6965545,
    "lat": 46.2057261
  },
  {
    "comune": "Bugnara",
    "lng": 13.8609296,
    "lat": 42.02198689999999
  },
  {
    "comune": "Buguggiate",
    "lng": 8.807817800000002,
    "lat": 45.7792042
  },
  {
    "comune": "Buia",
    "lng": 13.1112445,
    "lat": 46.2152713
  },
  {
    "comune": "Bulciago",
    "lng": 9.2893796,
    "lat": 45.7538153
  },
  {
    "comune": "Bulgarograsso",
    "lng": 9.0095455,
    "lat": 45.7467738
  },
  {
    "comune": "Bultei",
    "lng": 9.063162799999999,
    "lat": 40.4563182
  },
  {
    "comune": "Bulzi",
    "lng": 8.833311199999999,
    "lat": 40.8444397
  },
  {
    "comune": "Buonabitacolo",
    "lng": 15.618957,
    "lat": 40.2702788
  },
  {
    "comune": "Buonalbergo",
    "lng": 14.9793068,
    "lat": 41.222203
  },
  {
    "comune": "Buonconvento",
    "lng": 11.4796048,
    "lat": 43.13605690000001
  },
  {
    "comune": "Buonvicino",
    "lng": 15.8838619,
    "lat": 39.6901553
  },
  {
    "comune": "Burago di molgora",
    "lng": 9.379386799999999,
    "lat": 45.5997812
  },
  {
    "comune": "Burcei",
    "lng": 9.400614599999999,
    "lat": 39.3642889
  },
  {
    "comune": "Burgio",
    "lng": 13.3009828,
    "lat": 37.61349269999999
  },
  {
    "comune": "Burgos",
    "lng": -3.696906,
    "lat": 42.3439925
  },
  {
    "comune": "Buriasco",
    "lng": 7.414649799999999,
    "lat": 44.8727574
  },
  {
    "comune": "Burolo",
    "lng": 7.9324485,
    "lat": 45.4832691
  },
  {
    "comune": "Buronzo",
    "lng": 8.264678,
    "lat": 45.4777901
  },
  {
    "comune": "Busachi",
    "lng": 8.8993251,
    "lat": 40.0332228
  },
  {
    "comune": "Busalla",
    "lng": 8.9461497,
    "lat": 44.5692431
  },
  {
    "comune": "Busano",
    "lng": 7.65674,
    "lat": 45.3288401
  },
  {
    "comune": "Busca",
    "lng": 7.4779655,
    "lat": 44.5169135
  },
  {
    "comune": "Buscate",
    "lng": 8.8100464,
    "lat": 45.5498091
  },
  {
    "comune": "Buscemi",
    "lng": 14.8850216,
    "lat": 37.0862074
  },
  {
    "comune": "Buseto palizzolo",
    "lng": 12.7169408,
    "lat": 38.0021464
  },
  {
    "comune": "Busnago",
    "lng": 9.4644206,
    "lat": 45.6164655
  },
  {
    "comune": "Bussero",
    "lng": 9.3717002,
    "lat": 45.5360972
  },
  {
    "comune": "Busseto",
    "lng": 10.0422552,
    "lat": 44.98093170000001
  },
  {
    "comune": "Bussi sul tirino",
    "lng": 13.8253915,
    "lat": 42.2135849
  },
  {
    "comune": "Busso",
    "lng": 14.5575347,
    "lat": 41.5552345
  },
  {
    "comune": "Bussolengo",
    "lng": 10.8507277,
    "lat": 45.4732537
  },
  {
    "comune": "Bussoleno",
    "lng": 7.150285500000001,
    "lat": 45.1387568
  },
  {
    "comune": "Busto arsizio",
    "lng": 8.8531265,
    "lat": 45.611892
  },
  {
    "comune": "Busto garolfo",
    "lng": 8.883373599999999,
    "lat": 45.5454499
  },
  {
    "comune": "Butera",
    "lng": 14.182458,
    "lat": 37.1916464
  },
  {
    "comune": "Buti",
    "lng": 10.5855947,
    "lat": 43.72763339999999
  },
  {
    "comune": "Buttapietra",
    "lng": 10.9989857,
    "lat": 45.34131499999999
  },
  {
    "comune": "Buttigliera alta",
    "lng": 7.437101500000001,
    "lat": 45.0714555
  },
  {
    "comune": "Buttigliera d'asti",
    "lng": 7.9495956,
    "lat": 45.0193942
  },
  {
    "comune": "Buttrio",
    "lng": 13.3398358,
    "lat": 46.019099
  },
  {
    "comune": "Cabella ligure",
    "lng": 9.0953162,
    "lat": 44.674325
  },
  {
    "comune": "Cabiate",
    "lng": 9.1732385,
    "lat": 45.6758244
  },
  {
    "comune": "Cabras",
    "lng": 8.506200699999999,
    "lat": 39.9353342
  },
  {
    "comune": "Caccamo",
    "lng": 13.6652138,
    "lat": 37.9313776
  },
  {
    "comune": "Caccuri",
    "lng": 16.7763536,
    "lat": 39.2267223
  },
  {
    "comune": "Cadegliano-viconago",
    "lng": 8.8406445,
    "lat": 45.9670016
  },
  {
    "comune": "Cadelbosco di sopra",
    "lng": 10.6003865,
    "lat": 44.7624058
  },
  {
    "comune": "Cadeo",
    "lng": 9.831081400000002,
    "lat": 44.9743775
  },
  {
    "comune": "Caderzone terme",
    "lng": 10.7567788,
    "lat": 46.1293997
  },
  {
    "comune": "Cadoneghe",
    "lng": 11.9300958,
    "lat": 45.4440542
  },
  {
    "comune": "Cadorago",
    "lng": 9.0382719,
    "lat": 45.7246412
  },
  {
    "comune": "Cadrezzate con osmate",
    "lng": 8.646483,
    "lat": 45.79102229999999
  },
  {
    "comune": "Caerano di san marco",
    "lng": 12.0008539,
    "lat": 45.7858907
  },
  {
    "comune": "Cafasse",
    "lng": 7.5180642,
    "lat": 45.2451345
  },
  {
    "comune": "Caggiano",
    "lng": 15.4962861,
    "lat": 40.5654674
  },
  {
    "comune": "Cagli",
    "lng": 12.6497254,
    "lat": 43.5440529
  },
  {
    "comune": "Cagliari",
    "lng": 9.1216613,
    "lat": 39.2238411
  },
  {
    "comune": "Caglio",
    "lng": 9.2369729,
    "lat": 45.87182199999999
  },
  {
    "comune": "Cagnano amiterno",
    "lng": 13.2086442,
    "lat": 42.4572301
  },
  {
    "comune": "Cagnano varano",
    "lng": 15.7727772,
    "lat": 41.8296392
  },
  {
    "comune": "Cagno'",
    "lng": 8.9201456,
    "lat": 45.8122488
  },
  {
    "comune": "Caianello",
    "lng": 14.088517,
    "lat": 41.2979366
  },
  {
    "comune": "Caiazzo",
    "lng": 14.3646988,
    "lat": 41.17840830000001
  },
  {
    "comune": "Caines",
    "lng": 11.167187,
    "lat": 46.7008905
  },
  {
    "comune": "Caino",
    "lng": 11.4907551,
    "lat": 42.6220609
  },
  {
    "comune": "Caiolo",
    "lng": 9.8185591,
    "lat": 46.1507435
  },
  {
    "comune": "Cairano",
    "lng": 15.3681304,
    "lat": 40.8957712
  },
  {
    "comune": "Cairate",
    "lng": 8.8533919,
    "lat": 45.68926339999999
  },
  {
    "comune": "Cairo montenotte",
    "lng": 8.2732695,
    "lat": 44.4008071
  },
  {
    "comune": "Caivano",
    "lng": 14.3046087,
    "lat": 40.956764
  },
  {
    "comune": "Calabritto",
    "lng": 15.2154642,
    "lat": 40.7820954
  },
  {
    "comune": "Calalzo di cadore",
    "lng": 12.3807452,
    "lat": 46.4462554
  },
  {
    "comune": "Calamandrana",
    "lng": 8.336686799999999,
    "lat": 44.7369362
  },
  {
    "comune": "Calamonaci",
    "lng": 13.3183038,
    "lat": 37.5225293
  },
  {
    "comune": "Calangianus",
    "lng": 9.1929959,
    "lat": 40.9211189
  },
  {
    "comune": "Calanna",
    "lng": 15.7240576,
    "lat": 38.1858113
  },
  {
    "comune": "Calasca-castiglione",
    "lng": 8.174702,
    "lat": 46.0029943
  },
  {
    "comune": "Calascibetta",
    "lng": 14.2705208,
    "lat": 37.5895224
  },
  {
    "comune": "Calascio",
    "lng": 13.6883765,
    "lat": 42.3566311
  },
  {
    "comune": "Calasetta",
    "lng": 8.369288899999999,
    "lat": 39.10979409999999
  },
  {
    "comune": "Calatabiano",
    "lng": 15.2077798,
    "lat": 37.8166214
  },
  {
    "comune": "Calatafimi",
    "lng": 12.8635653,
    "lat": 37.9141401
  },
  {
    "comune": "Calcata",
    "lng": 12.4203269,
    "lat": 42.2166027
  },
  {
    "comune": "Calceranica al lago",
    "lng": 11.2444007,
    "lat": 46.0032796
  },
  {
    "comune": "Calci",
    "lng": 10.5183622,
    "lat": 43.7343014
  },
  {
    "comune": "Calciano",
    "lng": 16.1931656,
    "lat": 40.5879294
  },
  {
    "comune": "Calcinaia",
    "lng": 10.6142337,
    "lat": 43.683762
  },
  {
    "comune": "Calcinate",
    "lng": 9.7940915,
    "lat": 45.621596
  },
  {
    "comune": "Calcinato",
    "lng": 10.3956036,
    "lat": 45.45849519999999
  },
  {
    "comune": "Calcio",
    "lng": 12.5520906,
    "lat": 41.8703498
  },
  {
    "comune": "Calco",
    "lng": 17.7001476,
    "lat": 45.7006338
  },
  {
    "comune": "Caldaro sulla strada del vino",
    "lng": 11.2403375,
    "lat": 46.4130306
  },
  {
    "comune": "Caldarola",
    "lng": 13.2086442,
    "lat": 43.1289267
  },
  {
    "comune": "Calderara di reno",
    "lng": 11.2726182,
    "lat": 44.5674806
  },
  {
    "comune": "Caldes",
    "lng": 10.9387742,
    "lat": 46.3655374
  },
  {
    "comune": "Caldiero",
    "lng": 11.1750735,
    "lat": 45.4080576
  },
  {
    "comune": "Caldogno",
    "lng": 11.5127997,
    "lat": 45.61283700000001
  },
  {
    "comune": "Caldonazzo",
    "lng": 11.2621219,
    "lat": 45.9914453
  },
  {
    "comune": "Calendasco",
    "lng": 9.5936002,
    "lat": 45.0879006
  },
  {
    "comune": "Calenzano",
    "lng": 11.1957172,
    "lat": 43.8963044
  },
  {
    "comune": "Calestano",
    "lng": 10.1219535,
    "lat": 44.59777
  },
  {
    "comune": "Calice al cornoviglio",
    "lng": 9.8376828,
    "lat": 44.2445292
  },
  {
    "comune": "Calice ligure",
    "lng": 8.294812799999999,
    "lat": 44.2045552
  },
  {
    "comune": "Calimera",
    "lng": 18.291137,
    "lat": 40.245298
  },
  {
    "comune": "Calitri",
    "lng": 15.4380075,
    "lat": 40.9008925
  },
  {
    "comune": "Calizzano",
    "lng": 8.111579599999999,
    "lat": 44.2426927
  },
  {
    "comune": "Callabiana",
    "lng": 8.0739272,
    "lat": 45.64008800000001
  },
  {
    "comune": "Calliano",
    "lng": 11.0940643,
    "lat": 45.9344447
  },
  {
    "comune": "Calolziocorte",
    "lng": 9.431899,
    "lat": 45.8003717
  },
  {
    "comune": "Calopezzati",
    "lng": 16.8001396,
    "lat": 39.5600398
  },
  {
    "comune": "Calosso",
    "lng": 8.228479799999999,
    "lat": 44.73894809999999
  },
  {
    "comune": "Caloveto",
    "lng": 16.7593697,
    "lat": 39.5065743
  },
  {
    "comune": "Caltabellotta",
    "lng": 13.2186148,
    "lat": 37.5757496
  },
  {
    "comune": "Caltagirone",
    "lng": 14.5126066,
    "lat": 37.2380929
  },
  {
    "comune": "Caltanissetta",
    "lng": 14.0628928,
    "lat": 37.4901115
  },
  {
    "comune": "Caltavuturo",
    "lng": 13.8910289,
    "lat": 37.81965690000001
  },
  {
    "comune": "Caltignaga",
    "lng": 8.5899805,
    "lat": 45.5183554
  },
  {
    "comune": "Calto",
    "lng": 11.3577889,
    "lat": 44.9924533
  },
  {
    "comune": "Caltrano",
    "lng": 11.4553961,
    "lat": 45.7707383
  },
  {
    "comune": "Calusco d'adda",
    "lng": 9.4770681,
    "lat": 45.6911074
  },
  {
    "comune": "Caluso",
    "lng": 7.8896742,
    "lat": 45.3022362
  },
  {
    "comune": "Calvagese della riviera",
    "lng": 10.4614806,
    "lat": 45.5238616
  },
  {
    "comune": "Calvanico",
    "lng": 14.8259184,
    "lat": 40.7743206
  },
  {
    "comune": "Calvatone",
    "lng": 10.4408341,
    "lat": 45.1267308
  },
  {
    "comune": "Calvello",
    "lng": 15.8504991,
    "lat": 40.4750232
  },
  {
    "comune": "Calvene",
    "lng": 11.5122251,
    "lat": 45.7658248
  },
  {
    "comune": "Calvenzano",
    "lng": 9.605934099999999,
    "lat": 45.4853088
  },
  {
    "comune": "Calvera",
    "lng": 16.1431115,
    "lat": 40.1489868
  },
  {
    "comune": "Calvi",
    "lng": 14.8655318,
    "lat": 41.0715871
  },
  {
    "comune": "Calvi dell'umbria",
    "lng": 12.5693694,
    "lat": 42.4038614
  },
  {
    "comune": "Calvi risorta",
    "lng": 14.1428361,
    "lat": 41.2216895
  },
  {
    "comune": "Calvignano",
    "lng": 9.1612985,
    "lat": 44.9832651
  },
  {
    "comune": "Calvignasco",
    "lng": 9.0263335,
    "lat": 45.3259438
  },
  {
    "comune": "Calvisano",
    "lng": 10.3453579,
    "lat": 45.3490641
  },
  {
    "comune": "Calvizzano",
    "lng": 14.1883471,
    "lat": 40.9068307
  },
  {
    "comune": "Camagna monferrato",
    "lng": 8.430774,
    "lat": 45.0182064
  },
  {
    "comune": "Camaiore",
    "lng": 10.2969083,
    "lat": 43.9421402
  },
  {
    "comune": "Camandona",
    "lng": 8.0835113,
    "lat": 45.6536808
  },
  {
    "comune": "Camastra",
    "lng": 13.7943005,
    "lat": 37.2512842
  },
  {
    "comune": "Cambiago",
    "lng": 9.410622199999999,
    "lat": 45.568261
  },
  {
    "comune": "Cambiano",
    "lng": 12.4621758,
    "lat": 41.9047058
  },
  {
    "comune": "Cambiasca",
    "lng": 8.5450366,
    "lat": 45.9627329
  },
  {
    "comune": "Camburzano",
    "lng": 8.002516,
    "lat": 45.5440931
  },
  {
    "comune": "Camerana",
    "lng": 8.1447804,
    "lat": 44.4383637
  },
  {
    "comune": "Camerano",
    "lng": 13.5489586,
    "lat": 43.5313513
  },
  {
    "comune": "Camerano casasco",
    "lng": 8.0856208,
    "lat": 44.98268119999999
  },
  {
    "comune": "Camerata cornello",
    "lng": 9.6536934,
    "lat": 45.9021408
  },
  {
    "comune": "Camerata nuova",
    "lng": 13.1079157,
    "lat": 42.0188231
  },
  {
    "comune": "Camerata picena",
    "lng": 13.3523223,
    "lat": 43.5792055
  },
  {
    "comune": "Cameri",
    "lng": 8.661542899999999,
    "lat": 45.4988284
  },
  {
    "comune": "Camerino",
    "lng": 13.0683254,
    "lat": 43.13565029999999
  },
  {
    "comune": "Camerota",
    "lng": 15.3751388,
    "lat": 40.0318695
  },
  {
    "comune": "Camigliano",
    "lng": 11.3971628,
    "lat": 43.0073658
  },
  {
    "comune": "Camini",
    "lng": 16.4831125,
    "lat": 38.4310714
  },
  {
    "comune": "Camino",
    "lng": 8.2871881,
    "lat": 45.1623472
  },
  {
    "comune": "Camino al tagliamento",
    "lng": 12.9446411,
    "lat": 45.9294886
  },
  {
    "comune": "Camisano",
    "lng": 9.7450517,
    "lat": 45.4449376
  },
  {
    "comune": "Camisano vicentino",
    "lng": 11.7127488,
    "lat": 45.5206995
  },
  {
    "comune": "Cammarata",
    "lng": 13.6386711,
    "lat": 37.6327938
  },
  {
    "comune": "Camogli",
    "lng": 9.1498178,
    "lat": 44.3542792
  },
  {
    "comune": "Campagna",
    "lng": 15.1068113,
    "lat": 40.6670887
  },
  {
    "comune": "Campagna lupia",
    "lng": 12.0992936,
    "lat": 45.3522972
  },
  {
    "comune": "Campagnano di roma",
    "lng": 12.380943,
    "lat": 42.1386056
  },
  {
    "comune": "Campagnatico",
    "lng": 11.273746,
    "lat": 42.8837411
  },